lat,lng,COOP#,tnID,State,ity/Station Name,County,Elev,05_01,05_02,05_03,05_04,05_05,05_06,05_07,05_08,05_09,05_10,05_11,05_12,05_13,05_14,05_15,05_16,05_17,05_18,05_19,05_20,05_21,05_22,05_23,05_24,05_25,05_26,05_27,05_28,05_29,05_30,05_31,TotalSnow
34.13,-109.28,028162,,AZ,SPRINGERVILLE,APACHE,6998,0.000,0.000,0.000,0.000,0.000,-1,-1,0.000,0.000,0.000,-1,0.000,-1,0.000,0.000,0.000,0.000,0.000,2.000,-1,-1,0.000,-1,-1,-1,-1,-1,-1,-1,-1,-1,2.0
35.23,-111.82,020678,FGZ,AZ,BELLEMONT WFO,COCONINO,7152,0.000,0.000,0.000,0.000,0.000,0.000,0.000,-1,0.000,0.000,0.000,0.000,0.000,0.000,0.000,0.000,0.000,1.500,1.800,0.000,0.000,0.000,-1,-1,-1,-1,0.000,-1,-1,-1,0.000,3.3
36.21,-112.06,021001,NRMA,AZ,BRIGHT ANGEL RS,COCONINO,8000,-1,-1,-1,-1,-1,-1,-1,-1,-1,-1,-1,-1,-1,-1,-1,-1,-1,-1,2.000,0.000,-1,-1,-1,-1,-1,-1,0.000,0.000,-1,-1,-1,2.0
35.14,-111.67,023010,FLG,AZ,FLAGSTAFF AP,COCONINO,7003,0.000,0.000,0.000,0.000,0.000,0.000,0.000,0.000,0.000,0.000,-1,0.000,0.000,0.000,0.000,0.000,0.000,1.600,0.100,0.000,0.000,0.000,0.000,0.000,0.000,0.000,0.000,0.000,0.000,0.000,0.000,1.7
34.94,-111.64,025780,MUNA,AZ,MUND'S PARK,COCONINO,6470,0.000,0.000,0.000,0.000,0.000,0.000,-1,-1,0.000,0.000,0.000,-1,-1,-1,-1,0.000,0.000,0.000,0.900,0.000,-1,0.000,0.000,0.000,-1,0.000,0.000,0.000,0.000,0.000,-1,0.9
34.11,-109.86,025412,,AZ,MC NARY 2N,NAVAJO,7340,0.000,0.000,0.000,0.000,0.000,0.000,-1,0.000,0.000,0.000,0.000,-1,-1,-1,0.000,0.000,0.000,-1,1.400,0.100,-1,-1,0.000,0.000,0.000,0.000,0.000,0.000,0.000,0.000,0.000,1.5
34.12,-109.92,026601,PNEA,AZ,PINETOP 2E,NAVAJO,7200,0.000,0.000,-1,-1,-1,-1,0.000,0.000,0.000,0.000,0.000,-1,-1,-1,-1,0.000,0.000,0.000,0.900,0.000,0.000,0.000,0.000,0.000,0.000,0.000,0.000,-1,-1,-1,-1,0.9
34.26,-110.01,027855,SOW,AZ,SHOW LOW AP,NAVAJO,6411,0.000,0.000,0.000,0.000,0.000,0.000,0.000,0.000,0.000,0.000,0.000,0.000,0.000,0.000,0.000,0.000,0.000,0.000,0.100,0.000,0.000,0.000,0.000,0.000,0.000,0.000,0.000,0.000,0.000,0.000,0.000,0.1
38.93,-120.80,043384,,CA,GEORGETOWN RS,EL DORADO,3001,-1,-1,-1,-1,-1,-1,-1,-1,-1,-1,-1,-1,-1,-1,2.000,4.000,-1,-1,-1,-1,-1,-1,-1,-1,-1,-1,-1,-1,-1,-1,-1,6.0
38.70,-120.82,046960,,CA,PLACERVILLE,EL DORADO,1850,-1,-1,-1,-1,-1,-1,-1,-1,-1,-1,-1,-1,-1,0.000,3.200,-1,0.000,-1,-1,-1,-1,-1,-1,-1,-1,-1,-1,-1,-1,-1,-1,3.2
38.90,-119.99,048762,TVL,CA,SOUTH LAKE TAHOE AP,EL DORADO,6314,0.000,0.000,0.000,0.000,0.000,0.000,0.000,0.000,0.000,0.000,0.000,0.000,0.000,0.000,4.000,0.000,0.000,0.000,0.000,0.000,0.000,0.000,0.000,0.000,-1,0.000,0.000,0.300,0.200,0.000,0.000,4.5
37.51,-119.63,048380,,CA,SO ENTR YOSEMITE NP,MARIPOSA,5047,-1,-1,0.000,0.000,0.000,0.000,0.000,-1,-1,1.000,0.000,0.000,-1,-1,2.000,1.000,1.000,1.000,0.000,0.000,-1,-1,-1,0.000,0.000,-1,-1,-1,-1,-1,-1,6.0
41.27,-120.29,044374,,CA,JESS VALLEY,MODOC,5400,-1,0.000,0.000,-1,-1,0.000,0.000,0.000,1.000,0.000,-1,-1,0.000,0.000,0.000,1.000,1.000,2.000,0.000,0.000,0.000,0.000,0.000,0.000,0.000,1.000,0.000,-1,-1,3.000,-1,9.0
38.21,-119.01,040943,BDEC,CA,BODIE,MONO,8370,0.000,0.000,0.000,0.000,0.000,0.000,0.000,0.000,-1,2.000,-1,0.000,0.000,0.000,0.000,0.000,0.000,1.000,-1,-1,-1,-1,0.000,0.000,-1,0.000,-1,0.000,-1,0.500,0.000,3.5
38.26,-119.23,041072,BPTC,CA,BRIDGEPORT,MONO,6470,0.000,0.000,0.000,0.000,-1,0.000,0.000,0.000,0.000,0.000,0.000,0.000,0.000,0.000,0.500,0.500,0.500,0.800,-1,0.000,0.000,0.000,0.000,0.000,0.000,0.000,0.000,0.000,0.200,0.000,0.000,2.5
37.96,-119.12,044881,LEVC,CA,LEE VINING,MONO,6797,0.000,0.000,0.000,0.000,0.000,0.000,0.000,0.000,0.000,0.000,0.000,0.000,0.000,0.000,1.500,0.000,0.000,0.200,0.000,0.000,0.000,0.000,0.000,0.000,0.000,0.000,0.000,0.000,1.500,0.000,0.000,3.2
37.65,-118.96,045280,MALC,CA,MAMMOTH LAKES RS,MONO,7804,0.000,0.000,0.000,0.000,0.000,0.000,0.000,1.000,0.000,2.000,0.000,-1,0.000,0.000,4.000,1.000,0.000,3.000,0.000,0.000,-1,-1,0.000,-1,-1,0.000,-1,-1,-1,-1,0.000,11.0
39.39,-120.09,040931,,CA,BOCA,NEVADA,5575,0.000,0.000,0.000,0.000,0.000,0.000,0.000,0.000,0.500,0.000,0.000,0.000,0.000,0.000,0.000,0.000,0.000,0.200,0.000,0.000,-1,0.000,0.000,0.000,0.000,0.500,0.000,0.000,5.500,0.000,0.000,6.7
39.17,-120.14,048758,TAHC,CA,TAHOE CITY,PLACER,6230,-1,-1,0.000,-1,0.000,0.000,-1,-1,-1,0.000,0.000,-1,-1,-1,-1,-1,0.500,3.000,-1,-1,-1,-1,-1,-1,-1,3.000,-1,-1,-1,-1,-1,6.5
40.54,-121.58,045311,,CA,MANZANITA LAKE,SHASTA,5750,0.000,-1,-1,-1,-1,0.000,0.000,-1,-1,-1,0.000,0.000,0.000,-1,1.500,1.500,1.500,-1,-1,-1,-1,0.000,-1,0.000,0.000,3.500,0.000,0.000,-1,-1,-1,8.0
40.35,-121.61,045679,,CA,MINERAL,TEHAMA,4875,-1,-1,0.000,0.000,0.000,-1,-1,0.000,-1,-1,0.000,-1,-1,-1,-1,-1,2.000,2.000,0.000,0.000,0.000,-1,-1,-1,-1,2.000,-1,-1,-1,-1,-1,6.0
36.74,-118.96,043551,,CA,GRANT GROVE,TULARE,6600,0.000,0.000,0.000,-1,-1,0.000,0.000,0.000,0.300,1.500,-1,0.000,0.000,0.000,3.800,0.400,5.400,5.500,0.000,0.000,0.000,0.000,0.000,-1,0.000,0.000,-1,0.000,2.000,1.600,-1,20.5
36.60,-118.73,045026,LDGC,CA,LODGEPOLE,TULARE,6735,0.000,-1,-1,0.000,0.000,0.000,0.000,0.000,-1,-1,-1,-1,0.000,0.000,3.000,0.000,7.000,4.000,-1,0.000,-1,0.000,0.000,0.000,0.000,-1,0.000,0.000,2.500,0.500,-1,17.0
37.84,-120.23,043669,,CA,GROVELAND 2,TUOLUMNE,2800,-1,0.000,-1,-1,-1,-1,-1,-1,-1,-1,-1,0.000,-1,-1,0.300,-1,-1,-1,-1,-1,-1,-1,-1,-1,-1,-1,-1,-1,-1,0.000,-1,0.3
37.44,-105.86,050128,,CO,ALAMOSA 2S,ALAMOSA,7533,0.000,0.400,-1,-1,-1,-1,-1,-1,-1,-1,-1,-1,0.000,0.000,0.000,0.000,0.000,0.000,-1,-1,-1,-1,-1,-1,-1,-1,-1,-1,-1,-1,-1,0.4
37.44,-105.86,050130,ALS,CO,ALAMOSA BERGMAN FLD,ALAMOSA,7533,0.400,0.000,0.000,0.000,0.000,0.000,0.000,0.000,0.000,0.000,0.000,0.000,0.000,0.000,0.000,0.000,0.000,0.000,0.000,0.000,0.000,0.000,0.000,0.000,0.000,0.000,0.000,0.000,0.000,0.000,0.000,0.4
37.73,-105.51,053541,,CO,GREAT SAND DUNES NM,ALAMOSA,8183,0.500,-1,-1,-1,-1,-1,-1,-1,-1,-1,-1,-1,-1,-1,-1,-1,-1,-1,-1,-1,-1,-1,-1,-1,-1,-1,-1,-1,-1,-1,-1,0.5
37.43,-106.03,058860,,CO,WAVERLY 1W,ALAMOSA,7603,0.200,3.500,-1,-1,-1,-1,-1,-1,-1,-1,-1,-1,-1,-1,-1,-1,-1,-1,-1,-1,-1,-1,-1,-1,-1,-1,-1,-1,-1,-1,-1,3.7
39.99,-105.27,050848,BOUC,CO,BOULDER,BOULDER,5484,0.000,0.000,0.000,0.000,0.000,0.000,0.000,0.000,0.000,0.000,0.200,0.000,0.000,0.000,0.000,0.000,0.000,0.000,0.000,0.000,0.000,0.000,0.000,0.000,0.000,0.000,0.000,0.000,0.000,0.000,0.000,0.2
39.94,-105.35,053629,GRRC,CO,GROSS RSVR,BOULDER,7970,0.000,0.000,0.000,0.000,0.000,0.000,0.000,0.000,0.000,0.000,2.000,2.000,0.000,0.000,1.000,0.000,0.000,0.000,-1,0.000,0.000,0.000,0.000,0.000,0.000,0.000,0.000,0.000,0.000,0.000,0.000,5.0
38.82,-106.13,051071,BNVC,CO,BUENA VISTA 2S,CHAFFEE,7946,0.800,0.100,0.000,0.000,0.000,0.000,0.000,0.000,0.000,0.000,0.000,4.700,0.000,0.000,0.000,0.000,0.000,0.000,0.000,0.400,-1,0.000,0.000,0.000,0.000,0.000,0.000,0.000,0.000,0.000,0.000,6.0
39.66,-105.71,051186,GCRC,CO,CABIN CREEK,CLEAR CREEK,10020,0.000,1.500,0.500,0.000,0.000,0.000,0.000,0.000,0.000,0.000,4.000,5.000,0.000,0.000,2.000,0.000,0.000,0.000,5.000,1.000,0.000,0.000,0.000,0.000,0.000,0.000,0.000,0.000,0.000,0.000,0.000,19.0
39.72,-105.70,053261,GEOC,CO,GEORGETOWN,CLEAR CREEK,8520,0.000,0.800,0.300,0.000,0.000,0.000,0.000,0.000,0.000,0.000,4.000,1.000,0.000,0.000,3.000,0.000,0.000,0.000,0.800,2.000,0.000,0.000,0.000,0.000,0.000,0.000,0.000,0.000,0.000,0.000,0.000,11.9
39.83,-104.66,052211,DEN,CO,DENVER INTL AP,DENVER,5414,0.000,0.000,0.000,0.000,0.000,0.000,0.000,0.000,0.000,0.000,1.000,0.000,0.000,0.000,0.000,0.000,0.000,0.000,0.000,0.000,0.000,0.000,0.000,0.000,0.000,0.000,0.000,0.000,0.000,0.000,0.000,1.0
37.77,-108.91,052342,,CO,DOVE CREEK,DOLORES,6843,0.000,0.000,0.000,0.000,0.000,0.000,0.000,0.000,0.000,0.000,0.000,0.000,0.000,0.000,0.000,0.000,0.000,0.000,2.200,0.000,0.000,0.000,0.000,0.000,0.000,0.000,0.000,0.000,0.000,0.000,0.000,2.2
39.41,-104.91,051401,,CO,CASTLE ROCK,DOUGLAS,6185,0.000,0.000,0.000,0.000,0.000,0.000,-1,0.000,0.000,0.000,0.000,3.500,0.000,0.000,0.000,0.000,0.000,-1,0.000,0.000,0.000,0.000,0.000,-1,0.000,0.000,-1,-1,-1,0.000,0.000,3.5
39.51,-104.75,056323,PKKC,CO,PARKER,DOUGLAS,5904,-1,-1,-1,-1,-1,0.000,0.000,0.000,0.000,0.000,0.000,1.500,0.000,0.000,0.000,0.000,0.000,0.000,0.000,0.000,0.000,0.000,0.000,0.000,0.000,0.000,-1,0.000,0.000,0.000,0.000,1.5
39.43,-105.07,057249,ROXC,CO,ROXBOROUGH SP,DOUGLAS,6117,0.100,0.000,0.000,0.000,0.000,0.000,0.000,0.000,0.000,-1,0.000,0.000,0.000,0.000,0.000,0.000,0.000,0.000,0.000,0.000,0.000,0.000,0.000,0.000,0.000,0.000,0.000,0.000,0.000,0.000,0.000,0.1
39.43,-105.12,058022,,CO,STRONTIA SPRINGS DAM,DOUGLAS,5840,1.000,0.000,0.000,0.000,0.000,0.000,0.000,0.000,0.000,0.000,0.000,0.000,0.000,0.000,0.000,0.000,0.000,0.000,0.000,0.000,0.000,0.000,0.000,0.000,0.000,0.000,0.000,0.000,0.000,0.000,0.000,1.0
38.93,-104.87,051781,,CO,COLORADO SPRINGS FS 18,EL PASO,6633,0.000,0.100,0.000,0.000,0.000,0.000,-1,0.000,-1,-1,-1,0.000,0.000,0.000,0.000,-1,-1,-1,0.000,0.000,0.000,0.000,0.000,0.000,0.000,0.000,0.000,0.000,0.000,0.000,0.000,0.1
39.11,-104.60,052494,ESTC,CO,EASTONVILLE 2 NNW,EL PASO,7210,0.000,0.300,-1,-1,-1,-1,-1,-1,-1,-1,5.100,4.900,-1,0.000,0.500,-1,-1,-1,1.100,-1,-1,-1,-1,-1,-1,-1,-1,-1,-1,-1,-1,11.9
38.86,-104.09,057287,RUSC,CO,RUSH 1N,EL PASO,6054,-1,-1,1.500,-1,-1,-1,-1,-1,-1,-1,-1,-1,-1,-1,-1,-1,-1,-1,-1,-1,-1,-1,-1,-1,-1,-1,-1,-1,-1,-1,-1,1.5
38.84,-104.97,057309,,CO,RUXTON PARK,EL PASO,9050,1.000,-1,-1,-1,-1,-1,-1,-1,-1,-1,-1,-1,-1,-1,-1,-1,-1,-1,-1,-1,-1,-1,-1,-1,-1,-1,-1,-1,-1,-1,-1,1.0
39.38,-104.63,052631,ELIC,CO,ELIZABETH 2NW,ELBERT,6654,-1,-1,-1,-1,-1,-1,-1,-1,0.000,0.000,0.100,9.600,1.200,-1,-1,-1,-1,-1,-1,-1,-1,-1,-1,-1,-1,-1,-1,-1,-1,-1,-1,10.9
38.46,-105.23,051294,CTYC,CO,CANON CITY,FREMONT,5366,0.700,0.000,0.000,0.000,0.000,0.000,0.000,0.000,0.000,0.000,0.000,0.000,0.000,0.000,0.000,0.000,0.000,0.000,0.000,0.000,0.000,0.000,0.000,0.000,0.000,0.000,0.000,0.000,0.000,0.000,0.000,0.7
38.69,-105.39,053652,,CO,GUFFEY 9SE,FREMONT,8915,-1,-1,-1,-1,-1,-1,-1,0.000,0.000,0.000,8.800,-1,-1,-1,-1,-1,-1,-1,-1,0.000,-1,-1,-1,-1,-1,-1,-1,-1,-1,-1,-1,8.8
39.94,-105.82,053116,,CO,FRASER,GRAND,8560,3.000,0.000,-1,-1,-1,-1,-1,-1,-1,-1,3.000,0.000,0.000,0.000,0.000,0.000,-1,-1,1.000,-1,-1,-1,-1,-1,0.000,-1,-1,-1,-1,-1,-1,7.0
40.27,-105.83,053496,,CO,GRAND LAKE 1 NW,GRAND,8720,-1,0.000,0.000,0.000,0.000,0.000,0.000,0.000,0.000,0.000,1.000,0.000,0.000,0.000,0.000,0.000,0.000,0.000,5.000,4.000,2.000,0.000,0.000,-1,0.000,0.000,0.000,-1,0.000,0.000,0.000,12.0
40.04,-106.20,059096,WIFC,CO,WILLIAMS FORK DAM,GRAND,7618,0.000,0.000,0.000,0.000,0.000,0.000,0.000,0.000,0.000,0.000,0.000,0.000,0.000,0.000,0.000,0.000,0.000,0.000,2.000,6.000,0.000,0.000,-1,0.000,0.000,0.000,0.000,0.000,0.000,0.000,0.000,8.0
39.87,-105.76,059175,,CO,WINTER PARK,GRAND,9108,0.000,1.000,0.000,0.000,0.000,0.000,0.000,0.000,0.000,1.000,4.000,2.000,0.000,0.000,0.000,0.000,0.000,0.000,3.000,3.000,-1,0.000,0.000,0.000,0.000,0.000,0.000,0.000,0.000,0.000,0.000,14.0
38.45,-106.76,051713,,CO,COCHETOPA CREEK,GUNNISON,8002,0.600,0.000,0.000,0.000,0.000,0.000,0.000,0.000,0.000,0.000,0.300,0.000,0.000,0.000,0.000,0.000,0.000,0.000,0.000,0.000,0.000,0.000,0.000,0.000,0.000,0.000,0.000,0.000,0.000,0.000,0.000,0.9
38.87,-106.98,051959,CBUC,CO,CRESTED BUTTE,GUNNISON,8855,0.500,0.000,0.000,0.000,0.000,0.000,0.000,0.000,0.000,0.000,3.000,0.000,0.000,0.000,0.000,0.000,0.000,0.000,2.000,1.000,1.200,0.000,0.000,0.000,0.000,0.000,0.000,0.000,0.000,0.000,0.000,7.7
38.53,-106.97,053662,GUNC,CO,GUNNISON 3SW,GUNNISON,7624,-1,0.200,0.000,0.000,0.000,0.000,0.000,0.000,0.000,0.000,0.000,0.000,0.000,-1,-1,0.000,0.000,0.000,0.000,-1,-1,-1,-1,0.000,0.000,0.000,0.000,0.000,0.000,0.000,0.000,0.2
38.82,-106.61,058184,CRBC,CO,TAYLOR PARK,GUNNISON,9210,0.000,0.000,0.000,0.000,0.000,-1,-1,0.000,-1,-1,5.500,0.000,0.000,-1,-1,0.000,-1,-1,-1,-1,-1,-1,-1,-1,0.000,-1,0.000,-1,0.000,0.000,0.000,5.5
37.63,-104.80,058781,WALC,CO,WALSENBURG 1 NW,HUERFANO,6300,2.500,0.000,0.000,0.000,0.000,0.000,0.000,0.000,0.000,0.000,0.000,0.000,0.000,0.000,0.000,0.000,0.000,0.000,0.000,0.000,0.000,0.000,0.000,0.000,0.000,0.000,0.000,0.000,0.000,0.000,0.000,2.5
40.51,-106.01,053446,CSFC,CO,GOULD 4SE SFSP,JACKSON,9000,0.000,0.500,0.000,0.500,0.000,0.000,0.000,0.000,-1,0.400,0.200,3.000,0.200,0.000,0.000,0.000,0.000,0.000,1.000,0.500,0.300,0.000,0.000,1.000,1.000,0.000,1.000,0.000,0.000,0.000,0.000,9.6
40.74,-106.28,058756,,CO,WALDEN,JACKSON,8056,0.000,0.000,0.000,0.400,0.000,0.000,0.000,0.000,0.000,0.000,1.200,0.100,0.000,0.000,0.000,0.000,0.000,0.000,0.000,1.900,0.000,0.000,0.000,0.000,0.000,0.000,0.000,0.000,0.000,0.000,0.600,4.2
39.22,-105.28,051528,CHEC,CO,CHEESMAN,JEFFERSON,6880,1.000,0.000,0.000,0.000,0.000,0.000,0.000,0.000,0.000,0.000,0.000,-1,-1,0.000,-1,0.000,0.000,0.000,0.000,0.000,0.000,0.000,-1,0.000,0.000,0.000,0.000,0.000,0.000,0.000,0.000,1.0
39.90,-105.38,051681,,CO,COAL CREEK CANYON,JEFFERSON,8950,-1,-1,0.000,0.000,0.000,-1,-1,-1,-1,-1,-1,-1,-1,4.700,0.200,-1,-1,-1,-1,-1,0.100,0.000,-1,-1,-1,-1,-1,-1,0.000,1.200,0.000,6.2
39.64,-105.32,052790,EVGC,CO,EVERGREEN,JEFFERSON,6985,0.000,0.300,0.000,0.000,0.000,0.000,0.000,0.000,0.000,0.000,1.500,1.200,0.000,0.000,0.000,0.000,0.000,0.000,0.000,0.300,0.000,0.000,0.000,0.000,0.000,0.000,0.000,0.000,0.000,0.000,0.000,3.3
39.72,-105.25,053387,,CO,GOLDEN 3SW,JEFFERSON,7520,0.000,-1,-1,-1,0.000,0.000,0.000,-1,-1,0.000,9.000,1.500,-1,-1,-1,-1,-1,-1,2.300,0.000,-1,-1,-1,-1,0.000,0.000,-1,-1,-1,0.000,0.000,12.8
39.75,-105.12,054762,LKWC,CO,LAKEWOOD,JEFFERSON,5640,0.000,0.000,0.000,0.000,0.000,0.000,0.000,0.000,-1,0.000,0.100,0.000,0.000,0.000,0.000,0.000,0.000,0.000,0.000,0.000,0.000,-1,0.000,0.000,-1,-1,0.000,0.000,0.000,0.000,0.000,0.1
39.76,-105.07,058995,WGEC,CO,WHEAT RIDGE 2,JEFFERSON,5466,0.000,0.000,0.000,0.000,0.000,0.000,0.000,0.000,0.000,0.000,0.100,0.000,0.000,0.000,0.000,0.000,0.000,0.000,1.000,0.000,0.000,0.000,0.000,0.000,0.000,0.000,0.000,0.000,0.000,0.000,0.000,1.1
37.09,-107.53,054254,IGCC,CO,IGNACIO 8E,LA PLATA,6548,0.000,0.800,0.000,0.000,0.000,0.000,0.000,0.000,0.000,0.000,1.000,0.000,0.000,0.000,0.000,0.000,0.000,0.000,0.000,0.000,0.000,0.000,0.000,0.000,0.000,0.000,0.000,0.000,0.000,0.000,0.000,1.8
37.38,-107.58,058582,,CO,VALLECITO DAM,LA PLATA,7654,-1,-1,0.000,0.000,0.000,0.000,0.000,0.000,0.000,0.000,3.000,0.000,0.000,0.000,0.000,0.000,0.000,0.000,2.000,0.000,0.000,0.000,0.000,0.000,0.000,0.000,0.000,-1,-1,-1,0.000,5.0
39.37,-106.19,051660,CLXC,CO,CLIMAX,LAKE,11294,0.500,1.700,0.700,0.000,0.000,0.000,0.000,0.000,0.000,0.100,3.000,9.000,1.000,0.000,1.700,0.000,0.000,0.000,2.900,11.000,4.200,0.600,0.000,0.000,1.600,0.000,1.200,0.000,0.000,0.000,0.400,39.6
39.25,-106.37,058064,,CO,SUGARLOAF RSVR,LAKE,9738,-1,-1,0.000,0.000,0.000,-1,-1,-1,-1,-1,1.300,8.600,0.000,-1,-1,-1,-1,-1,1.500,0.400,1.200,-1,-1,-1,-1,-1,-1,-1,-1,-1,1.000,14.0
39.09,-106.35,058501,,CO,TWIN LAKES RESERVOIR,LAKE,9205,-1,-1,0.000,0.000,0.000,-1,-1,-1,-1,0.100,0.000,3.000,0.000,-1,-1,-1,-1,-1,-1,-1,-1,-1,-1,0.000,-1,0.000,-1,-1,-1,-1,-1,3.1
40.37,-105.51,052761,,CO,ESTES PARK 1 SSE,LARIMER,7785,-1,1.200,0.000,-1,0.000,-1,-1,-1,-1,-1,0.900,5.000,-1,-1,0.600,-1,-1,-1,6.000,1.600,-1,-1,-1,0.000,-1,-1,-1,-1,-1,-1,-1,15.3
40.97,-106.00,054054,HORC,CO,HOHNHOLZ RCH,LARIMER,7760,0.000,0.000,0.000,0.300,0.000,0.000,0.000,-1,0.000,0.000,1.000,5.000,0.000,0.000,0.000,0.000,0.000,0.000,0.000,0.000,0.000,0.000,0.000,-1,0.000,0.000,0.000,0.000,0.000,0.000,0.300,6.6
40.97,-105.22,058690,VDAC,CO,VIRGINIA DALE 7 ENE,LARIMER,7015,0.000,1.200,0.000,0.000,0.000,0.000,0.000,0.000,0.000,0.000,3.000,-1,-1,-1,-1,-1,-1,-1,8.000,0.000,0.000,0.000,0.000,0.000,0.000,0.000,0.000,0.000,0.000,0.000,0.000,12.2
37.32,-104.95,050105,AGRC,CO,AGUILAR 18WSW,LAS ANIMAS,8644,6.000,2.000,0.000,-1,-1,-1,-1,-1,-1,-1,-1,0.000,-1,-1,3.000,-1,-1,-1,-1,-1,-1,-1,-1,-1,-1,-1,-1,-1,-1,-1,-1,11.0
37.11,-103.30,054546,KIXC,CO,KIM 10SSE,LAS ANIMAS,5300,3.000,-1,-1,-1,-1,-1,-1,-1,-1,-1,-1,-1,-1,-1,-1,-1,-1,-1,-1,-1,-1,-1,-1,-1,-1,-1,-1,-1,-1,-1,-1,3.0
37.45,-103.32,054538,,CO,KIM 15 NNE,LAS ANIMAS,5190,1.100,-1,-1,-1,-1,-1,-1,-1,-1,-1,-1,-1,-1,-1,-1,-1,-1,-1,-1,-1,-1,-1,-1,-1,-1,-1,-1,-1,-1,-1,-1,1.1
37.15,-104.56,058436,,CO,TRINIDAD LAKE,LAS ANIMAS,6310,2.000,0.000,0.000,0.000,0.000,0.000,0.000,0.000,0.000,0.000,0.000,0.000,0.000,0.000,0.000,0.000,0.000,0.000,0.000,0.000,0.000,0.000,0.000,0.000,0.000,-1,0.000,0.000,0.000,0.000,0.000,2.0
38.95,-109.05,053307,GDPC,CO,GLADE PARK 17W,MESA,6389,0.000,0.000,0.000,0.000,0.000,0.000,0.000,0.000,0.000,0.200,0.000,0.000,0.000,0.000,0.000,0.000,0.000,0.000,0.500,0.300,0.000,0.000,0.000,0.000,0.000,0.000,0.000,0.000,0.000,0.000,0.000,1.0
37.82,-107.11,057450,,CO,SANTA MARIA RSVR,MINERAL,9687,0.500,2.000,-1,-1,-1,-1,-1,-1,-1,0.000,0.000,4.000,-1,-1,-1,-1,-1,-1,2.500,0.000,-1,-1,-1,-1,-1,-1,-1,-1,-1,-1,0.000,9.0
38.55,-107.69,050754,,CO,BLACK CANYON GUNNISON,MONTROSE,8151,0.200,0.000,0.000,0.000,0.000,0.000,0.000,0.000,0.000,0.000,3.000,1.000,0.000,0.000,0.000,0.000,0.000,0.000,3.100,0.100,0.000,0.000,-1,0.000,0.000,0.000,0.000,-1,0.000,0.000,0.000,7.4
38.03,-107.67,056205,,CO,OURAY #2,OURAY,7718,0.900,7.500,0.000,0.000,0.000,0.000,0.000,0.000,0.000,0.000,4.100,8.300,0.000,0.000,0.000,0.000,0.000,0.000,0.400,3.500,0.000,0.000,0.000,-1,0.000,0.000,0.000,0.000,0.000,0.000,0.000,24.7
38.99,-105.89,050263,,CO,ANTERO RSVR,PARK,8920,1.000,0.000,0.000,0.000,0.000,0.000,0.000,0.000,0.000,0.000,0.000,7.000,0.000,0.000,0.000,0.000,0.000,0.000,0.000,0.000,0.000,0.000,0.000,0.000,0.000,0.000,0.000,0.000,0.000,0.000,0.000,8.0
39.40,-105.48,050454,,CO,BAILEY,PARK,7730,1.300,0.000,-1,-1,-1,-1,-1,-1,-1,-1,3.000,2.500,0.000,-1,2.000,-1,-1,-1,-1,0.000,-1,-1,-1,-1,-1,-1,-1,-1,-1,-1,-1,8.8
39.22,-105.99,052816,,CO,FAIRPLAY S PARK RD,PARK,9995,-1,-1,0.000,0.000,-1,0.000,0.000,0.000,0.000,0.000,0.000,2.900,0.000,-1,-1,-1,0.000,0.000,0.000,0.400,0.000,0.000,0.000,0.000,0.000,0.000,0.000,0.000,-1,-1,0.000,3.3
39.46,-105.68,053530,GRTC,CO,GRANT,PARK,8675,1.000,0.000,0.000,0.000,0.000,0.000,0.000,0.000,0.000,0.000,4.500,-1,0.000,0.000,-1,0.000,0.000,0.000,0.000,0.000,2.000,0.000,0.000,0.000,0.000,0.000,0.000,0.000,0.000,0.000,-1,7.5
38.91,-105.47,054742,LGRC,CO,LAKE GEORGE 8 SW,PARK,8550,-1,1.000,0.000,0.000,0.000,0.000,0.000,0.000,0.000,0.000,1.000,4.000,0.000,0.000,0.000,0.000,0.000,0.000,0.000,0.000,0.000,0.000,0.000,0.000,0.000,0.000,0.000,0.000,0.000,0.000,0.000,6.0
38.05,-105.00,055795,,CO,BEULAH (MPEC),PUEBLO,6627,3.600,0.300,0.000,0.000,0.000,0.000,0.000,0.000,0.000,0.000,0.000,0.000,0.000,0.000,0.000,0.000,0.000,0.000,0.000,0.000,0.000,0.000,0.000,0.000,0.000,0.000,0.000,0.000,0.000,0.000,0.000,3.9
37.91,-104.95,057317,RYEC,CO,RYE 1SW,PUEBLO,7141,3.300,0.000,0.000,0.000,0.000,0.000,0.000,0.000,0.000,-1,0.000,0.000,0.000,0.000,0.000,0.000,0.000,0.000,-1,0.000,0.000,0.000,0.000,0.000,0.000,0.000,0.000,0.000,0.000,0.000,0.000,3.3
37.71,-106.14,051458,CENC,CO,CENTER 4 SSW,RIO GRANDE,7673,-1,2.500,0.000,0.000,-1,0.000,-1,-1,0.000,0.000,0.000,0.000,0.000,-1,-1,0.000,0.000,0.000,0.000,0.000,-1,-1,-1,-1,-1,-1,-1,-1,-1,-1,0.000,2.5
37.67,-106.32,052184,DLNC,CO,DEL NORTE 2E,RIO GRANDE,7864,3.400,3.600,-1,-1,-1,-1,-1,-1,-1,-1,-1,-1,-1,-1,-1,-1,-1,-1,-1,-1,-1,-1,-1,-1,-1,-1,-1,-1,-1,-1,-1,7.0
37.58,-106.19,055706,MVSC,CO,MONTE VISTA 2W,RIO GRANDE,7692,1.000,3.000,0.000,-1,-1,-1,-1,-1,-1,-1,-1,0.000,-1,-1,-1,-1,-1,-1,-1,-1,-1,-1,-1,-1,-1,-1,-1,-1,-1,-1,-1,4.0
40.49,-107.25,053867,HAYC,CO,HAYDEN,ROUTT,6440,-1,-1,-1,0.000,-1,-1,-1,-1,-1,0.000,0.000,-1,-1,-1,-1,-1,-1,-1,0.500,-1,-1,-1,0.000,-1,-1,-1,-1,0.000,-1,-1,0.000,0.5
40.24,-107.10,056040,,CO,OAK CREEK 7WSW,ROUTT,8205,0.000,0.000,0.000,-1,-1,-1,-1,0.000,0.000,-1,12.000,1.500,0.000,-1,0.000,0.000,-1,-1,-1,-1,-1,0.000,0.000,-1,-1,0.000,-1,-1,-1,0.000,-1,13.5
40.49,-106.82,057936,SBTC,CO,STEAMBOAT SPRINGS,ROUTT,6870,0.000,0.000,0.000,1.000,0.000,0.000,-1,-1,0.000,0.000,0.000,0.000,0.000,0.000,0.000,0.000,0.000,0.000,-1,0.000,0.000,0.000,0.000,0.000,0.000,0.000,0.000,0.000,0.000,0.000,0.000,1.0
40.16,-106.91,059265,YMPC,CO,YAMPA,ROUTT,7857,0.000,0.000,-1,-1,-1,-1,-1,-1,-1,-1,7.000,-1,-1,-1,-1,-1,-1,-1,-1,-1,-1,-1,-1,-1,-1,-1,-1,-1,-1,-1,-1,7.0
37.98,-105.69,051964,CSTC,CO,CRESTONE 2 SE,SAGUACHE,8004,0.100,0.000,0.000,0.000,0.000,0.000,0.000,0.000,0.000,0.000,0.000,0.000,0.000,0.000,0.000,0.000,0.000,0.000,0.400,0.000,0.000,0.000,0.000,0.000,0.000,0.000,0.000,0.000,0.000,0.000,0.000,0.5
39.49,-106.04,050909,,CO,BRECKENRIDGE,SUMMIT,9580,0.400,5.200,0.000,-1,-1,-1,-1,-1,-1,0.000,3.000,3.900,0.000,-1,-1,-1,-1,-1,0.000,2.400,2.000,-1,-1,-1,-1,-1,-1,-1,-1,-1,0.000,16.9
39.63,-106.04,052281,DLLC,CO,DILLON 1 E,SUMMIT,9065,0.000,3.000,0.000,0.000,0.000,0.000,0.000,0.000,0.000,0.000,4.000,2.000,0.000,0.000,0.000,0.000,0.000,0.000,2.000,2.000,3.000,0.000,0.000,0.000,0.000,0.000,0.000,0.000,0.000,0.000,-1,16.0
39.88,-106.33,053592,,CO,GREEN MT DAM,SUMMIT,7740,-1,-1,0.000,-1,-1,-1,-1,-1,-1,0.000,1.000,0.000,-1,-1,-1,-1,0.000,0.000,0.000,-1,-1,-1,-1,-1,-1,-1,-1,-1,-1,-1,-1,1.0
43.74,-116.20,101017,BOSI,ID,BOISE 7 N,ADA,3885,-1,-1,-1,-1,-1,-1,-1,-1,-1,-1,-1,-1,-1,-1,-1,2.500,-1,-1,-1,-1,-1,-1,-1,-1,-1,-1,-1,-1,-1,-1,-1,2.5
42.65,-111.58,108535,,ID,SODA SPRINGS AP,CARIBOU,5842,-1,-1,-1,-1,-1,-1,0.000,-1,-1,-1,-1,-1,-1,-1,-1,-1,-1,-1,-1,-1,-1,-1,-1,-1,-1,1.000,-1,-1,-1,0.000,0.000,1.0
46.61,-115.80,104154,,ID,HEADQUARTERS 1 SSE,CLEARWATER,3242,-1,0.000,0.200,0.000,0.000,-1,-1,-1,-1,-1,-1,-1,-1,-1,-1,-1,-1,-1,-1,-1,-1,-1,-1,-1,-1,-1,-1,-1,-1,-1,-1,0.2
44.22,-114.93,108676,STAI,ID,STANLEY,CUSTER,6271,-1,-1,-1,-1,-1,-1,-1,-1,-1,-1,-1,-1,-1,-1,-1,-1,-1,-1,-1,-1,-1,-1,-1,-1,-1,1.000,-1,1.000,-1,-1,-1,2.0
45.57,-115.45,102577,,ID,DIXIE NORTH,IDAHO,5740,0.500,-1,2.000,0.000,-1,-1,-1,2.600,0.700,-1,-1,-1,-1,-1,-1,0.600,0.000,0.000,-1,-1,-1,-1,-1,1.000,-1,0.000,0.000,0.000,0.000,-1,-1,7.4
45.84,-115.46,102875,ELKI,ID,ELK CITY 1NE,IDAHO,4058,0.500,0.000,0.000,0.000,0.000,-1,-1,-1,-1,-1,0.000,0.000,0.000,0.000,0.000,0.000,-1,-1,-1,-1,-1,-1,-1,-1,-1,-1,-1,-1,-1,-1,-1,0.5
45.71,-115.34,107563,REDI,ID,RED RIVER RS,IDAHO,4350,-1,-1,-1,-1,-1,0.000,0.000,0.000,1.000,-1,-1,-1,-1,-1,-1,-1,-1,-1,-1,-1,-1,-1,-1,-1,-1,-1,-1,-1,-1,-1,-1,1.0
44.68,-113.36,105177,LDRI,ID,LEADORE NO.2,LEMHI,6000,-1,0.000,-1,0.000,0.000,0.000,-1,-1,0.000,0.000,0.000,0.000,0.000,-1,-1,-1,0.300,0.000,0.000,0.000,-1,-1,-1,0.000,0.000,0.000,0.000,-1,-1,-1,-1,0.3
46.24,-116.62,109846,WINI,ID,WINCHESTER,LEWIS,3950,0.000,0.000,1.000,0.000,0.000,0.000,0.000,-1,0.000,-1,-1,-1,-1,-1,-1,-1,0.000,0.000,0.000,0.000,0.000,0.000,0.000,0.000,0.000,0.500,0.000,0.000,0.000,0.000,0.000,1.5
42.92,-112.57,107211,,ID,POCATELLO RGNL AP,POWER,4478,0.000,0.000,0.000,0.000,0.000,0.000,0.000,0.000,0.000,0.000,0.000,0.000,0.000,0.000,0.000,0.000,0.000,0.000,0.000,0.000,0.000,0.000,0.000,0.000,0.000,0.100,0.000,0.000,0.000,0.000,0.000,0.1
43.86,-111.28,109065,,ID,TETONIA EXP STN,TETON,6170,-1,-1,-1,-1,-1,-1,-1,-1,-1,0.100,-1,-1,-1,-1,-1,0.000,-1,-1,-1,-1,-1,-1,-1,-1,-1,0.000,-1,-1,-1,-1,0.000,0.1
44.52,-116.05,101514,CASI,ID,CASCADE 1 NW,VALLEY,4896,0.000,0.000,0.000,0.000,0.000,0.000,0.000,0.000,0.000,0.000,0.000,0.000,0.000,0.000,0.000,2.800,0.000,0.000,0.000,0.000,-1,0.000,-1,-1,0.000,0.000,-1,-1,0.000,0.000,0.000,2.8
44.89,-116.10,105708,,ID,MC CALL,VALLEY,5025,0.000,0.000,0.000,0.000,0.000,0.000,0.000,0.000,0.000,0.000,-1,0.000,0.000,0.000,0.000,2.000,0.000,0.000,0.000,0.000,0.000,0.000,0.000,0.000,-1,1.000,0.000,-1,0.000,0.000,0.000,3.0
46.51,-88.67,208706,,MI,WATTON,BARAGA,1427,0.000,0.000,0.100,0.000,0.000,0.000,0.000,0.000,0.000,0.000,-1,-1,-1,-1,-1,-1,-1,-1,-1,-1,-1,-1,-1,0.000,-1,-1,-1,-1,-1,-1,-1,0.1
46.47,-90.19,204104,IRMM,MI,IRONWOOD,GOGEBIC,1430,0.000,-1,0.200,-1,-1,-1,-1,-1,-1,-1,-1,-1,-1,-1,-1,-1,-1,-1,-1,-1,-1,-1,-1,-1,-1,-1,-1,-1,-1,-1,-1,0.2
46.41,-94.36,213411,GLLM,MN,GULL LAKE DAM,CASS,1215,0.100,-1,-1,-1,-1,-1,-1,-1,-1,-1,-1,-1,-1,-1,-1,-1,-1,-1,-1,-1,-1,0.000,-1,0.000,-1,-1,-1,-1,0.000,-1,0.000,0.1
46.89,-96.75,215586,MORM,MN,MOORHEAD,CLAY,890,0.100,0.000,0.000,0.000,0.000,0.000,0.000,0.000,0.000,0.000,0.000,0.000,0.000,0.000,0.000,0.000,0.000,0.000,-1,0.000,0.000,0.000,0.000,0.000,0.000,0.000,0.000,0.000,0.000,0.000,0.000,0.1
47.23,-95.19,214106,,MN,ITASCA UNIV OF MINN,CLEARWATER,1490,0.200,-1,-1,-1,-1,-1,-1,-1,-1,-1,-1,-1,-1,-1,-1,-1,-1,-1,-1,-1,-1,-1,-1,-1,-1,-1,-1,-1,-1,-1,-1,0.2
46.34,-94.21,210939,BRAM,MN,BRAINERD,CROW WING,1180,0.100,0.000,0.000,0.000,0.000,0.000,0.000,-1,0.000,-1,-1,-1,-1,-1,-1,-1,-1,-1,-1,-1,-1,-1,-1,-1,-1,-1,-1,-1,-1,-1,-1,0.1
47.84,-94.26,215989,,MN,NORTHOME 3S,ITASCA,1415,0.300,0.000,0.000,0.000,0.000,0.000,0.000,0.000,0.000,0.000,0.000,-1,0.000,0.000,0.000,0.000,0.000,0.000,0.000,0.000,0.000,0.000,0.000,0.000,0.000,0.000,0.000,0.000,0.000,0.000,0.000,0.3
48.56,-93.40,214026,INL,MN,INTERNATIONAL FALLS AP,KOOCHICHING,1183,0.400,0.000,0.000,0.000,0.000,0.000,0.000,0.000,0.000,0.000,0.000,0.000,0.000,0.000,0.000,0.000,0.000,0.000,0.000,0.000,0.000,0.000,0.000,0.000,0.000,0.000,0.000,0.000,0.000,0.000,0.000,0.4
48.61,-95.18,211250,,MN,CAMP NORRIS DNR,LAKE OF THE WOODS,1289,0.600,0.000,0.000,0.000,0.000,0.000,0.000,0.000,0.000,0.000,0.000,0.000,0.000,0.000,0.000,0.000,0.000,0.000,0.000,0.000,0.000,0.000,0.000,0.000,0.000,0.000,0.000,0.000,0.000,0.000,0.000,0.6
46.43,-95.55,216276,,MN,OTTERTAIL,OTTER TAIL,980,0.500,0.500,0.000,0.000,0.000,0.000,-1,-1,0.000,0.000,0.000,0.000,0.000,0.000,0.000,0.000,0.000,-1,0.000,0.000,0.000,0.000,0.000,0.000,-1,-1,-1,0.000,0.000,-1,0.000,1.0
47.89,-96.27,216787,RDLM,MN,RED LAKE FALLS,RED LAKE,1090,1.000,0.000,-1,-1,-1,-1,-1,-1,-1,-1,-1,0.000,0.000,0.000,0.000,-1,0.000,0.000,-1,-1,-1,-1,-1,0.000,-1,0.000,-1,0.000,-1,-1,-1,1.0
47.89,-92.53,211771,COKM,MN,COOK 8NE,ST. LOUIS,1355,-1,0.500,0.000,-1,-1,-1,-1,-1,-1,-1,-1,-1,-1,-1,-1,-1,-1,-1,-1,-1,-1,-1,-1,-1,-1,-1,-1,-1,-1,-1,-1,0.5
46.48,-96.29,217149,,MN,ROTHSAY,WILKIN,1236,0.800,0.000,0.000,0.000,-1,0.000,-1,-1,-1,0.000,0.000,0.000,-1,0.000,0.000,0.000,0.000,0.000,0.000,0.000,-1,-1,-1,0.000,-1,0.000,0.000,0.000,-1,-1,-1,0.8
45.62,-113.45,249067,WISM,MT,WISDOM,BEAVERHEAD,6060,0.000,0.000,-1,-1,-1,-1,-1,-1,0.500,0.000,-1,-1,-1,-1,-1,-1,-1,0.000,-1,0.000,-1,-1,-1,-1,-1,0.000,0.000,-1,-1,2.000,-1,2.5
45.18,-109.25,246918,RELM,MT,RED LODGE,CARBON,5637,0.400,0.300,0.000,0.000,0.000,0.000,0.000,0.000,0.000,0.200,0.000,0.000,0.000,0.000,0.000,0.000,-1,0.000,0.000,0.000,0.000,0.000,-1,0.000,0.000,0.000,0.000,0.000,6.000,0.000,0.000,6.9
45.89,-104.55,242689,EKLM,MT,EKALAKA,CARTER,3425,0.500,0.000,-1,-1,-1,-1,-1,-1,-1,-1,-1,-1,-1,-1,-1,-1,-1,-1,-1,-1,-1,-1,-1,-1,0.000,-1,-1,-1,-1,-1,-1,0.5
47.47,-111.38,243751,GTF,MT,GREAT FALLS AP,CASCADE,3664,0.300,0.000,0.000,0.000,0.000,0.000,0.000,0.000,0.000,0.000,0.000,0.000,0.000,0.000,0.000,0.000,0.000,0.000,0.000,0.000,0.000,0.000,0.000,0.000,0.000,0.000,0.000,0.000,0.000,0.000,0.000,0.3
47.46,-111.38,243753,,MT,GREAT FALLS WFO,CASCADE,3705,0.300,0.000,0.000,0.000,0.000,0.000,0.000,0.000,0.000,0.000,0.000,0.000,0.000,0.000,0.000,0.000,0.000,0.000,0.000,0.000,0.000,0.000,0.000,0.000,0.000,0.000,0.000,0.000,0.000,0.000,0.000,0.3
47.04,-110.79,246007,,MT,NEIHART 7 NW,CASCADE,4945,2.200,0.000,0.000,0.000,0.000,0.000,0.000,0.000,0.000,0.000,0.000,0.000,0.000,0.000,0.000,0.000,0.000,0.000,0.000,0.000,0.000,0.000,0.000,0.000,0.000,0.000,0.000,0.000,0.000,0.000,0.000,2.2
46.19,-113.26,243437,,MT,GEORGETOWN LAKE - 7 GABLES,DEER LODGE,6410,0.000,0.000,0.000,0.000,0.000,0.000,0.000,0.000,4.500,-1,-1,0.000,0.000,-1,0.000,0.000,0.000,0.000,0.000,0.000,0.000,0.000,0.000,0.000,0.000,0.000,0.000,0.000,0.000,-1,0.000,4.5
45.28,-111.32,240775,,MT,BIG SKY 2WNW,GALLATIN,6590,1.500,0.000,0.000,-1,0.000,0.000,0.000,0.000,0.000,0.000,0.000,0.000,0.000,0.000,0.000,0.000,0.000,-1,-1,0.000,0.000,0.000,0.000,-1,-1,0.100,0.000,2.500,0.200,0.000,0.000,4.3
45.66,-111.05,241044,BZEM,MT,BOZEMAN MONTANA ST U,GALLATIN,4913,0.300,0.000,0.000,0.000,0.000,0.000,0.000,0.000,0.000,0.000,0.000,0.000,0.000,0.000,-1,-1,0.000,0.000,0.000,0.000,0.000,0.000,0.000,0.000,0.000,0.000,0.000,0.000,0.000,0.000,0.000,0.3
44.66,-111.10,248858,,MT,WEST YELLOWSTONE GATEWAY,GALLATIN,6700,0.000,0.000,0.000,0.000,0.000,0.000,0.000,0.000,0.000,0.000,0.000,0.000,0.000,0.000,-1,0.000,0.000,0.000,0.000,-1,0.000,0.000,0.000,0.000,0.000,0.000,3.000,0.500,0.000,0.000,-1,3.5
48.74,-113.43,247292,MARM,MT,ST MARY,GLACIER,4560,-1,-1,-1,0.000,-1,-1,-1,-1,-1,-1,-1,-1,-1,-1,-1,-1,-1,-1,-1,-1,-1,-1,-1,0.200,0.400,-1,-1,-1,-1,0.000,0.000,0.6
46.53,-109.34,247263,RYGM,MT,RYEGATE 18 NNW,GOLDEN VALLEY,4440,0.100,0.000,0.000,0.000,0.000,0.000,0.000,0.000,0.000,0.000,0.000,0.000,0.000,0.000,0.000,0.000,0.000,0.000,0.000,0.000,0.000,0.000,0.000,0.000,0.000,0.000,0.000,0.000,0.000,0.000,0.000,0.1
45.34,-111.71,242793,ENSM,MT,ENNIS,MADISON,4953,0.000,0.000,0.000,0.000,0.000,0.000,0.000,0.000,0.000,0.000,0.000,0.000,0.000,0.000,0.000,0.000,0.000,0.000,0.000,0.000,0.000,0.000,0.000,0.000,0.000,0.000,0.000,0.800,0.000,0.000,0.000,0.8
46.88,-111.16,245712,,MT,MILLEGAN 14 SE,MEAGHER,4970,2.000,0.000,0.000,0.000,0.000,0.000,0.000,-1,0.000,0.000,0.000,0.000,0.000,0.000,0.000,0.000,0.000,0.000,0.000,0.000,0.000,0.000,0.000,-1,-1,0.000,0.000,0.000,0.000,0.000,0.000,2.0
45.02,-109.95,241995,CKCM,MT,COOKE CITY 2 W,PARK,7483,0.000,0.000,-1,-1,-1,-1,-1,0.000,0.000,0.000,0.000,0.000,0.000,0.000,0.000,0.000,0.000,0.100,0.000,0.000,0.000,0.000,0.000,0.000,0.000,0.400,5.100,0.900,0.000,0.500,0.000,7.0
45.91,-113.74,247967,,MT,SULA 14 NE,RAVALLI,5160,0.000,-1,0.400,0.000,-1,-1,-1,-1,2.500,-1,-1,-1,-1,-1,-1,-1,0.000,-1,-1,-1,-1,-1,-1,-1,-1,-1,-1,-1,-1,-1,-1,2.9
45.85,-113.93,247964,SULM,MT,SULA 3 ENE,RAVALLI,4475,0.000,0.000,0.000,0.000,0.000,0.000,0.000,0.000,2.000,0.000,0.000,0.000,0.000,0.000,0.000,0.000,0.000,0.000,0.000,-1,0.000,0.000,0.000,0.000,0.000,0.000,0.000,-1,0.000,0.000,0.000,2.0
45.75,-112.75,242421,,MT,DIVIDE,SILVER BOW,5350,-1,-1,-1,-1,-1,-1,-1,-1,-1,-1,-1,-1,-1,-1,-1,-1,0.500,-1,-1,-1,-1,-1,-1,-1,-1,-1,-1,-1,-1,-1,-1,0.5
45.24,-109.73,245961,,MT,MYSTIC LAKE,STILLWATER,6544,0.000,0.000,0.000,0.000,0.000,0.000,0.000,0.000,2.000,-1,-1,0.000,0.000,0.000,0.000,-1,0.000,0.000,1.000,-1,-1,0.000,0.000,-1,0.000,0.000,0.000,0.000,16.000,-1,0.000,19.0
46.04,-109.49,243486,,MT,GIBSON 2 NE,SWEET GRASS,4464,0.200,0.000,0.000,0.000,0.000,0.000,0.000,0.000,0.000,0.000,-1,-1,-1,-1,0.000,0.000,0.000,0.000,0.000,-1,-1,-1,0.000,-1,0.000,-1,-1,-1,-1,0.000,0.000,0.2
46.65,-109.48,244545,,MT,JUDITH GAP 13 E,WHEATLAND,5203,2.000,0.000,0.000,0.000,0.000,0.000,0.000,0.000,0.000,0.000,0.000,0.000,0.000,0.000,0.000,0.000,0.000,0.000,0.000,-1,0.000,0.000,0.000,0.000,0.000,0.000,0.000,0.000,0.000,0.000,0.000,2.0
45.81,-108.54,240807,BIL,MT,BILLINGS INTL AP,YELLOWSTONE,3581,0.300,0.000,0.000,0.000,0.000,0.000,0.000,0.000,0.000,0.000,0.000,0.000,0.000,0.000,0.000,0.000,0.000,0.000,0.000,0.000,0.000,0.000,0.000,0.000,0.000,0.000,0.000,0.000,0.000,0.000,0.000,0.3
48.98,-100.33,324879,LMGN,ND,LAKE METIGOSHE SP,BOTTINEAU,2142,-1,3.000,-1,-1,-1,-1,-1,-1,-1,-1,-1,-1,-1,-1,-1,-1,-1,-1,-1,-1,-1,-1,-1,-1,-1,-1,-1,-1,-1,-1,-1,3.0
48.63,-101.38,325002,,ND,LANSFORD,BOTTINEAU,1610,3.000,-1,-1,-1,-1,-1,-1,-1,-1,-1,-1,-1,-1,-1,-1,-1,-1,-1,-1,-1,-1,-1,-1,-1,-1,-1,-1,-1,-1,-1,-1,3.0
46.18,-103.41,320995,BOWN,ND,BOWMAN,BOWMAN,2980,5.400,0.000,0.000,0.000,0.000,0.000,0.000,0.000,0.000,0.000,0.000,0.000,0.000,0.000,0.000,0.000,0.000,0.000,0.000,0.000,0.000,0.000,0.000,0.000,0.000,0.000,0.000,-1,-1,0.000,0.000,5.4
46.83,-100.80,320817,,ND,BISMARCK 5NNW,BURLEIGH,1831,1.600,0.000,0.000,0.000,0.000,0.000,0.000,0.000,0.000,0.000,0.000,0.000,0.000,0.000,0.000,0.000,0.000,-1,-1,-1,-1,-1,-1,-1,-1,-1,-1,-1,-1,-1,-1,1.6
47.35,-102.59,322365,,ND,DUNN CENTER 1E,DUNN,2204,6.500,0.000,0.000,0.000,0.000,0.000,0.000,0.000,-1,-1,-1,-1,-1,-1,0.000,-1,-1,-1,-1,0.000,-1,-1,-1,-1,-1,-1,-1,-1,-1,-1,-1,6.5
47.14,-102.33,325582,,ND,MARSHALL,DUNN,1980,3.000,-1,-1,-1,-1,-1,-1,-1,-1,-1,-1,-1,-1,-1,-1,-1,-1,-1,-1,-1,-1,-1,-1,-1,-1,-1,-1,-1,-1,-1,-1,3.0
47.51,-99.12,321362,CRNN,ND,CARRINGTON 4 N,FOSTER,1560,2.000,-1,-1,-1,-1,-1,-1,-1,-1,-1,-1,-1,-1,-1,-1,-1,-1,-1,-1,-1,-1,-1,-1,-1,-1,-1,-1,-1,-1,-1,-1,2.0
47.94,-97.18,323616,GFK,ND,GRAND FORKS INTL AP,GRAND FORKS,842,0.100,0.000,0.000,0.000,0.000,0.000,0.000,0.000,0.000,0.000,0.000,0.000,0.000,0.000,0.000,0.000,0.000,0.000,0.000,0.000,0.000,0.000,0.000,0.000,0.000,0.000,0.000,0.000,0.000,0.000,0.000,0.1
47.92,-97.10,323621,GRFN,ND,GRAND FORKS UNIV NWS,GRAND FORKS,830,0.200,0.000,0.000,0.000,0.000,0.000,0.000,0.000,0.000,0.000,0.000,0.000,0.000,0.000,0.000,0.000,0.000,0.000,0.000,0.000,0.000,0.000,0.000,0.000,0.000,0.000,0.000,0.000,0.000,0.000,0.000,0.2
46.43,-101.57,321370,,ND,CARSON,GRANT,2335,1.500,-1,-1,-1,-1,-1,-1,-1,-1,-1,-1,-1,-1,-1,-1,-1,-1,-1,-1,-1,-1,-1,-1,-1,-1,-1,-1,-1,-1,-1,-1,1.5
46.59,-101.81,324091,,ND,HEART BUTTE DAM,GRANT,2134,2.000,-1,-1,-1,-1,-1,-1,-1,-1,-1,-1,-1,-1,-1,-1,-1,-1,-1,-1,-1,-1,-1,-1,-1,-1,-1,-1,-1,-1,-1,-1,2.0
46.04,-99.38,320382,ALYN,ND,ASHLEY,MCINTOSH,2001,0.100,-1,-1,-1,-1,-1,-1,-1,-1,-1,-1,-1,-1,-1,-1,-1,-1,-1,-1,-1,-1,-1,-1,-1,-1,-1,-1,-1,-1,-1,-1,0.1
46.26,-99.56,329515,,ND,WISHEK,MCINTOSH,2037,0.100,-1,-1,-1,-1,-1,-1,-1,-1,-1,-1,-1,-1,-1,-1,-1,-1,-1,-1,-1,-1,-1,-1,-1,-1,-1,-1,-1,-1,-1,-1,0.1
47.80,-103.29,329233,WTDN,ND,WATFORD CITY,MCKENZIE,2170,4.100,-1,-1,-1,-1,-1,-1,-1,-1,-1,-1,-1,-1,-1,-1,-1,-1,-1,-1,-1,-1,-1,-1,-1,-1,-1,-1,-1,-1,-1,-1,4.1
47.46,-101.15,328872,,ND,UNDERWOOD,MCLEAN,2045,1.600,0.000,0.000,-1,-1,-1,-1,-1,-1,-1,-1,-1,-1,-1,-1,-1,-1,-1,0.000,0.000,-1,-1,-1,-1,-1,-1,-1,-1,-1,-1,-1,1.6
47.16,-100.79,329455,,ND,WILTON,MCLEAN,2188,4.000,-1,-1,-1,-1,-1,-1,-1,-1,-1,-1,-1,-1,-1,-1,-1,-1,-1,-1,-1,-1,-1,-1,-1,-1,-1,-1,-1,-1,-1,-1,4.0
47.29,-101.82,320767,,ND,BEULAH 2NW,MERCER,2070,6.000,0.000,0.000,0.000,0.000,0.000,0.000,0.000,0.000,0.000,0.000,0.000,0.000,0.000,0.000,0.000,0.000,0.000,0.000,0.000,0.000,0.000,0.000,0.000,0.000,0.000,0.000,0.000,0.000,0.000,0.000,6.0
46.46,-101.20,323004,FLAN,ND,FLASHER,MORTON,1980,0.300,-1,-1,-1,-1,-1,-1,-1,-1,-1,-1,-1,-1,-1,-1,-1,-1,-1,-1,-1,-1,-1,-1,-1,-1,-1,-1,-1,-1,-1,-1,0.3
46.89,-101.49,326365,NWSN,ND,NEW SALEM 5NW,MORTON,2150,3.000,0.000,0.000,0.000,0.000,0.000,0.000,0.000,0.000,0.000,0.000,0.000,0.000,0.000,0.000,0.000,0.000,0.000,0.000,0.000,0.000,0.000,0.000,0.000,0.000,0.000,0.000,0.000,0.000,0.000,0.000,3.0
48.86,-97.70,321435,CVLN,ND,CAVALIER 7NW,PEMBINA,890,0.500,0.200,0.000,0.000,0.000,0.000,0.000,0.000,0.000,0.000,0.000,0.000,0.000,0.000,0.000,0.000,0.000,0.000,0.000,0.000,0.000,0.000,0.000,0.000,0.000,0.000,0.000,0.000,0.000,0.000,0.000,0.7
48.97,-97.24,326947,PBAN,ND,PEMBINA,PEMBINA,790,1.000,0.000,-1,-1,-1,-1,-1,-1,-1,-1,0.000,-1,-1,-1,-1,-1,-1,-1,-1,-1,-1,-1,-1,-1,-1,-1,-1,-1,-1,-1,-1,1.0
48.11,-98.84,322158,KDLN,ND,DEVILS LAKE KDLR,RAMSEY,1464,0.300,0.000,0.000,0.000,0.000,0.000,0.000,-1,-1,-1,-1,-1,-1,-1,-1,-1,-1,-1,-1,-1,-1,-1,-1,-1,-1,-1,-1,-1,-1,-1,-1,0.3
48.43,-98.47,322525,EDRN,ND,EDMORE 1NW,RAMSEY,1535,1.000,-1,-1,-1,-1,-1,-1,-1,-1,-1,-1,-1,-1,-1,-1,-1,-1,-1,-1,-1,-1,-1,-1,-1,-1,-1,-1,-1,-1,-1,-1,1.0
46.07,-97.15,325186,LGRN,ND,LIDGERWOOD,RICHLAND,1125,0.500,0.000,0.000,0.000,0.000,0.000,0.000,0.000,0.000,0.000,0.000,0.000,0.000,0.000,0.000,0.000,0.000,0.000,0.000,0.000,0.000,0.000,0.000,0.000,0.000,0.000,-1,0.000,0.000,0.000,0.000,0.5
47.00,-102.48,328660,,ND,TAYLOR 7 NNW,STARK,2220,0.700,-1,0.000,-1,-1,-1,-1,-1,-1,-1,0.000,-1,-1,-1,-1,-1,-1,-1,0.000,-1,-1,-1,-1,-1,-1,-1,-1,-1,-1,-1,-1,0.7
46.88,-98.68,324418,JTWN,ND,JAMESTOWN STATE HOSP,STUTSMAN,1467,0.300,0.000,-1,-1,-1,-1,-1,-1,-1,-1,-1,-1,-1,-1,-1,-1,-1,-1,-1,-1,-1,-1,-1,-1,-1,-1,-1,-1,-1,-1,-1,0.3
47.50,-97.35,325660,,ND,MAYVILLE,TRAILL,946,0.500,-1,-1,-1,-1,-1,-1,-1,-1,-1,-1,-1,-1,-1,-1,-1,-1,-1,-1,-1,-1,-1,-1,-1,-1,-1,-1,-1,-1,-1,-1,0.5
48.18,-101.30,325993,MNON,ND,MINOT EXP STN,WARD,1769,3.300,-1,-1,-1,-1,-1,-1,-1,-1,-1,-1,-1,-1,-1,-1,-1,-1,-1,-1,-1,-1,-1,-1,-1,-1,-1,-1,-1,-1,-1,-1,3.3
41.01,-103.88,251361,,NE,BUSHNELL 15S,KIMBALL,5170,0.000,0.200,0.200,0.000,0.000,0.000,0.000,0.000,0.000,0.000,-1,0.700,0.000,-1,-1,0.000,0.000,0.000,0.000,0.000,0.000,0.000,0.000,0.000,0.000,0.000,0.000,0.000,0.000,0.000,0.000,1.1
41.86,-103.64,257667,,NE,SCOTTSBLUFF 1E,SCOTTS BLUFF,3909,0.000,0.500,-1,0.000,0.000,0.000,0.000,0.000,0.000,-1,0.000,0.000,0.000,-1,-1,-1,0.000,0.000,0.000,0.000,-1,0.000,0.000,0.000,0.000,-1,-1,-1,0.000,0.000,0.000,0.5
44.95,-71.32,271968,BIGN,NH,DIAMOND POND,COOS,2200,-1,-1,-1,-1,-1,1.000,0.000,-1,-1,-1,-1,-1,-1,-1,-1,-1,-1,-1,-1,-1,-1,-1,-1,-1,-1,-1,-1,-1,-1,-1,-1,1.0
45.09,-71.29,272999,FCLN,NH,FIRST CONNECTICUT LAKE,COOS,1660,-1,0.000,0.000,0.000,0.000,0.500,-1,-1,0.000,0.000,0.000,0.000,0.000,-1,-1,0.000,0.000,0.000,-1,-1,-1,-1,0.000,0.000,0.000,0.000,-1,-1,-1,-1,-1,0.5
44.27,-71.30,275639,,NH,MT WASHINGTON,COOS,6267,0.000,0.000,0.000,0.000,1.000,1.300,0.000,0.000,0.000,0.000,0.000,0.000,0.000,0.000,0.000,0.000,-1,0.000,0.000,0.000,0.000,0.000,0.000,0.000,0.000,0.000,0.000,0.000,0.000,0.000,-1,2.3
35.13,-106.49,290225,ABFN,NM,ALBUQUERQUE FOOTHILLS,BERNALILLO,6120,0.300,0.100,0.000,0.000,0.000,0.000,0.000,0.000,0.000,0.000,0.000,0.000,0.000,0.000,0.000,0.000,0.000,0.000,0.000,0.000,0.000,0.000,0.000,0.000,0.000,0.000,0.000,0.000,0.000,0.000,0.000,0.4
34.34,-108.49,297180,QMDN,NM,QUEMADO,CATRON,6878,0.000,0.000,0.000,0.000,0.000,0.000,-1,-1,-1,0.000,-1,-1,-1,-1,0.000,0.000,0.000,0.000,1.500,-1,0.000,0.000,0.000,0.000,0.000,0.000,0.000,0.000,0.000,0.000,0.000,1.5
35.09,-107.52,292250,,NM,CUBERO,CIBOLA,6195,1.000,-1,-1,-1,-1,-1,-1,-1,0.000,0.000,0.000,-1,-1,-1,-1,-1,-1,-1,-1,-1,0.000,0.000,0.000,-1,-1,-1,-1,-1,-1,-1,-1,1.0
35.04,-108.35,292785,,NM,EL MORRO NATL MON,CIBOLA,7223,0.000,0.000,0.000,0.000,0.000,0.000,0.000,0.000,0.000,0.000,0.000,0.000,0.000,0.000,0.000,0.000,0.000,0.000,3.500,0.000,0.000,0.000,0.000,0.000,0.000,0.000,0.000,-1,0.000,0.000,0.000,3.5
36.40,-105.29,290407,AGFN,NM,ANGEL FIRE 1S,COLFAX,8500,2.000,2.000,0.000,-1,-1,-1,-1,-1,-1,-1,1.000,-1,-1,-1,-1,-1,0.000,-1,-1,1.000,-1,-1,-1,-1,-1,-1,-1,-1,-1,-1,0.000,6.0
36.56,-105.26,292700,EGNN,NM,EAGLE NEST,COLFAX,8280,0.000,1.000,0.000,0.000,0.000,0.000,0.000,0.000,0.000,0.000,0.000,0.000,0.000,0.000,0.000,0.000,0.000,0.000,0.000,0.000,0.000,0.000,0.000,0.000,0.000,0.000,0.000,0.000,0.000,0.000,0.000,1.0
35.94,-104.20,297638,,NM,ROY,HARDING,5868,5.000,-1,-1,-1,-1,-1,-1,-1,-1,-1,-1,-1,-1,-1,-1,-1,-1,-1,-1,-1,-1,-1,-1,-1,-1,-1,-1,-1,-1,-1,-1,5.0
35.86,-106.32,295084,LOAN,NM,LOS ALAMOS,LOS ALAMOS,7424,0.700,0.000,-1,-1,-1,-1,-1,-1,-1,-1,-1,-1,-1,-1,-1,-1,-1,-1,-1,-1,-1,-1,-1,-1,-1,-1,-1,-1,-1,-1,-1,0.7
36.92,-106.58,291664,CHMN,NM,CHAMA,RIO ARRIBA,7850,1.500,0.500,-1,-1,-1,-1,-1,-1,-1,-1,4.000,-1,-1,-1,-1,-1,-1,-1,-1,2.500,1.500,-1,-1,-1,-1,-1,-1,-1,-1,-1,-1,10.0
36.94,-107.00,292608,,NM,DULCE,RIO ARRIBA,6793,2.200,0.000,0.000,0.000,0.000,0.000,0.000,0.000,0.000,0.000,1.300,0.000,0.000,0.000,0.000,0.000,0.000,0.000,0.000,0.000,0.000,0.000,0.000,0.000,0.000,0.000,-1,0.000,0.000,0.000,0.000,3.5
36.35,-106.19,292820,,NM,EL RITO,RIO ARRIBA,6870,3.000,-1,-1,-1,-1,-1,0.000,0.000,0.000,0.000,0.000,0.000,-1,-1,0.000,0.000,0.000,0.000,0.000,-1,-1,0.000,0.000,0.000,-1,0.000,0.000,-1,-1,-1,-1,3.0
36.59,-106.73,292837,,NM,EL VADO DAM,RIO ARRIBA,6740,4.000,2.000,0.100,-1,-1,-1,-1,-1,-1,-1,1.500,-1,-1,-1,-1,-1,-1,-1,-1,1.500,-1,-1,-1,-1,-1,-1,-1,-1,-1,-1,-1,9.1
35.80,-107.18,299031,TORN,NM,TORREON NAVAJO MISSION,SANDOVAL,6700,0.400,-1,-1,-1,-1,-1,-1,-1,-1,-1,-1,-1,-1,-1,-1,-1,-1,-1,-1,-1,-1,-1,-1,-1,-1,-1,-1,-1,-1,-1,-1,0.4
35.95,-106.75,299820,,NM,WOLF CANYON,SANDOVAL,8220,11.000,1.000,0.000,0.000,0.000,0.000,0.000,0.000,0.000,0.000,1.000,0.000,0.000,0.000,0.000,0.000,0.000,0.000,2.000,1.000,0.000,0.000,0.000,0.000,0.000,0.000,0.000,0.000,0.000,0.000,0.000,16.0
36.00,-106.06,293031,EPON,NM,ESPANOLA,SANTA FE,5620,0.000,0.800,0.000,0.000,-1,0.000,0.000,0.000,0.000,0.000,0.000,0.000,0.000,0.000,0.000,0.000,0.000,0.000,0.000,0.000,0.000,0.000,0.000,0.000,0.000,0.000,0.000,0.000,0.000,0.000,0.000,0.8
36.71,-105.40,297323,REDN,NM,RED RIVER,TAOS,8676,4.500,2.500,0.000,0.000,0.000,0.000,0.000,0.000,0.000,0.000,0.000,0.000,0.000,-1,0.000,0.000,0.000,0.000,1.000,1.000,0.000,0.000,-1,-1,0.000,0.000,0.000,0.000,0.000,0.000,0.000,9.0
34.62,-106.31,295968,,NM,MOUNTAINAIR 8NW,TORRANCE,6672,0.000,2.000,0.000,0.000,0.000,0.000,0.000,0.000,0.000,0.000,0.000,0.000,0.000,0.000,0.000,0.000,0.000,0.000,0.000,0.000,0.000,0.000,0.000,0.000,0.000,0.000,0.000,0.000,0.000,0.000,0.000,2.0
36.45,-103.15,291887,,NM,CLAYTON MUNI ARPK AP,UNION,4960,2.100,0.000,0.000,0.000,0.000,0.000,0.000,0.000,0.000,0.000,0.000,0.000,0.000,0.000,0.000,0.000,0.000,0.000,0.000,0.000,0.000,0.000,0.000,0.000,0.000,0.000,0.000,0.000,0.000,0.000,0.000,2.1
36.30,-103.74,296619,PSMN,NM,PASAMONTE,UNION,5650,2.000,0.000,0.000,0.000,0.000,0.000,0.000,0.000,0.000,0.000,0.000,0.000,0.000,-1,0.000,0.000,0.000,-1,0.000,0.000,0.000,0.000,0.000,0.000,0.000,0.000,0.000,0.000,0.000,0.000,0.000,2.0
36.26,-115.65,265400,MCHN,NV,MT CHARLESTON FS,CLARK,7600,0.000,0.000,0.000,0.000,0.000,0.000,0.000,0.000,0.500,0.000,0.000,0.000,0.000,0.000,0.000,0.000,0.000,0.000,0.000,0.000,0.000,0.000,0.000,0.000,0.000,0.000,0.000,0.000,0.000,0.000,0.000,0.5
38.98,-119.89,262119,DAGN,NV,DAGGET PASS,DOUGLAS,7334,0.000,0.000,0.000,0.000,0.000,0.000,0.000,0.000,2.000,-1,0.000,0.000,0.000,0.000,2.500,0.000,-1,0.000,0.000,0.000,0.000,0.000,0.000,0.000,0.000,-1,0.000,0.000,4.000,0.000,0.000,8.5
39.08,-119.94,263205,GLBN,NV,GLENBROOK,DOUGLAS,6350,0.000,0.000,0.000,0.000,0.000,0.000,0.000,0.000,0.000,-1,0.000,0.000,0.000,0.000,1.000,0.000,-1,0.000,0.000,0.000,0.000,0.000,0.000,0.000,0.000,0.000,0.000,0.000,2.000,0.000,0.000,3.0
40.86,-115.74,262570,LKN,NV,ELKO - NWS,ELKO,5235,0.000,0.000,0.000,0.000,0.000,0.000,0.000,0.000,0.000,0.000,0.000,0.000,0.000,0.000,0.300,0.300,0.000,0.000,0.000,0.000,0.000,0.000,0.000,0.000,0.000,0.000,0.000,0.000,0.000,0.000,0.000,0.6
40.83,-115.79,262573,EKO,NV,ELKO RGNL AP,ELKO,5030,0.000,0.000,0.000,0.000,0.000,0.000,0.000,0.000,0.000,0.000,0.000,0.000,0.000,0.000,0.300,0.000,0.000,0.000,0.000,0.000,0.000,0.000,0.000,0.000,0.000,0.000,0.000,0.000,0.000,0.000,0.000,0.3
40.74,-115.49,264391,LOIN,NV,LAMOILLE 2N,ELKO,5750,0.000,-1,-1,0.000,0.000,0.000,0.000,0.000,1.000,0.700,0.000,0.000,0.000,0.000,0.000,1.600,0.000,0.000,-1,0.000,0.000,0.000,0.000,0.000,0.000,0.000,0.000,-1,-1,-1,0.000,3.3
41.03,-114.47,265722,OASN,NV,OASIS,ELKO,5835,0.000,0.000,0.000,0.000,-1,0.000,0.000,-1,0.000,0.000,0.000,0.000,0.000,0.000,0.000,0.000,0.300,0.000,0.000,0.000,0.000,0.000,0.000,-1,0.000,0.000,0.000,0.000,-1,-1,0.000,0.3
40.20,-115.49,267123,RBLN,NV,RUBY LAKE NWR,ELKO,6019,0.000,0.000,0.000,0.000,0.000,-1,0.000,0.000,-1,-1,0.000,-1,0.000,-1,-1,0.000,0.500,0.000,0.000,0.000,-1,0.000,0.000,0.000,0.000,0.000,-1,-1,-1,-1,0.000,0.5
41.31,-116.22,268346,TUSN,NV,TUSCARORA,ELKO,6170,0.000,0.000,0.000,0.000,0.000,0.000,0.000,0.000,0.000,0.000,0.000,0.000,0.000,0.000,0.000,1.500,0.000,0.000,0.000,0.000,0.000,0.000,0.000,0.000,0.000,0.000,0.000,0.000,0.000,0.000,0.000,1.5
41.64,-115.80,269072,AWH,NV,WILD HORSE RSVR,ELKO,6239,-1,-1,0.000,-1,0.000,0.000,0.000,0.000,0.000,0.000,0.000,0.000,0.000,0.000,0.000,0.000,-1,0.000,0.000,0.000,-1,-1,0.000,0.000,0.000,0.000,0.000,0.000,0.000,3.000,0.000,3.0
37.61,-118.01,262431,DYRN,NV,DYER,ESMERALDA,4900,0.000,0.000,0.000,0.000,0.000,0.000,0.000,0.000,0.000,0.000,0.000,0.000,0.000,0.000,0.000,-1,0.000,0.000,0.000,0.000,0.000,0.000,0.000,0.000,0.000,0.000,-1,0.000,0.100,0.000,0.000,0.1
39.52,-115.96,262708,,NV,EUREKA,EUREKA,6430,-1,0.000,0.000,0.000,0.000,0.000,0.000,0.000,0.000,0.500,-1,0.000,0.000,0.000,0.000,2.000,0.000,2.000,0.000,0.000,0.000,0.000,0.000,0.000,0.000,0.000,0.000,0.000,0.000,2.000,0.000,6.5
42.00,-117.72,264935,MCDN,NV,MCDERMITT,HUMBOLDT,4430,0.000,0.000,0.000,0.000,0.000,0.000,0.000,0.000,0.000,0.000,0.000,0.000,0.000,0.000,0.000,0.000,-1,0.000,0.000,0.000,0.000,0.000,0.000,0.000,0.000,0.000,0.000,1.000,0.000,0.000,0.000,1.0
39.49,-117.07,260507,U31,NV,AUSTIN #2,LANDER,6780,-1,-1,-1,-1,-1,-1,-1,-1,6.000,-1,-1,-1,0.000,-1,-1,-1,-1,-1,-1,0.000,-1,-1,-1,0.000,-1,-1,-1,-1,-1,-1,0.000,6.0
38.04,-114.18,267750,SPVN,NV,SPRING VALLEY SP,LINCOLN,5950,0.000,0.000,0.000,0.000,0.000,0.000,0.000,0.000,0.000,0.000,0.000,0.000,0.000,0.000,0.000,0.000,0.000,0.500,0.000,0.000,-1,-1,-1,0.000,0.000,0.000,0.000,0.000,0.000,0.000,0.000,0.5
39.31,-119.65,268761,VRCN,NV,VIRGINIA CITY,STOREY,6340,0.000,0.000,0.000,0.000,0.000,0.000,0.000,0.000,-1,-1,0.000,0.000,0.000,0.000,0.000,0.100,0.100,0.200,0.000,0.000,0.000,0.000,0.000,0.000,0.000,-1,0.000,-1,0.000,0.000,0.000,0.4
39.02,-119.71,265194,,NV,MINDEN 6 NE,WASHOE,4880,0.000,0.000,0.000,0.000,0.000,0.000,0.000,0.000,0.000,0.200,0.000,0.000,0.000,0.000,0.000,0.000,0.000,0.000,0.000,0.000,0.000,0.000,0.000,0.000,0.000,0.000,0.000,0.000,0.500,0.200,0.000,0.9
39.30,-114.84,262626,,NV,ELY 6 NE,WHITE PINE,6263,0.000,-1,-1,0.000,0.000,0.000,0.000,0.000,0.000,0.000,0.000,0.000,0.000,0.000,0.000,1.000,0.000,0.000,0.000,0.000,0.000,0.000,0.000,0.000,0.000,0.000,0.000,0.000,4.800,4.200,-1,10.0
39.30,-114.85,262631,ELY,NV,ELY AIRPORT,WHITE PINE,6262,0.000,0.000,0.000,0.000,0.000,0.000,0.000,0.000,0.000,0.000,0.000,0.000,0.000,0.000,1.000,0.000,0.000,0.000,0.000,0.000,0.000,0.000,0.000,0.000,0.000,0.000,0.000,1.500,7.500,0.000,0.000,10.0
39.01,-114.22,263340,LENN,NV,GREAT BASIN NP,WHITE PINE,6850,0.000,0.000,0.000,0.000,0.000,-1,0.000,0.000,0.000,0.000,0.000,0.000,0.000,-1,0.000,-1,0.000,2.000,-1,0.000,0.000,0.000,0.000,0.000,0.000,-1,0.000,0.000,-1,-1,-1,2.0
38.87,-115.02,264745,LUNN,NV,LUND,WHITE PINE,5546,0.000,0.000,0.000,0.000,0.000,0.000,0.000,0.000,0.000,0.000,0.000,0.000,0.000,0.000,0.000,0.000,0.000,1.000,0.000,0.000,0.000,-1,0.000,0.000,-1,0.000,0.000,0.000,0.000,0.000,0.000,1.0
39.41,-114.77,264950,MCGN,NV,MCGILL,WHITE PINE,6270,0.000,0.000,0.000,0.000,0.000,0.000,0.000,0.000,0.000,0.000,0.000,0.000,0.000,0.000,0.000,0.000,0.000,0.000,0.000,0.000,-1,0.000,0.000,0.000,0.000,0.000,0.000,0.000,6.500,0.000,0.000,6.5
39.36,-115.33,265371,,NV,MOORMAN RANCH - RUTH 16WNW,WHITE PINE,6539,0.000,0.000,0.000,0.000,0.000,0.000,0.000,0.000,0.000,0.200,0.000,0.000,-1,0.000,-1,0.000,0.000,0.000,0.000,0.000,0.000,0.000,0.000,0.000,0.000,0.000,0.000,0.000,0.000,0.000,0.000,0.2
39.28,-114.99,267175,RTHN,NV,RUTH,WHITE PINE,6858,0.000,0.000,0.000,0.000,0.000,0.000,0.000,0.000,0.000,0.000,0.000,0.000,0.000,0.000,0.000,0.000,0.000,0.000,0.000,0.000,0.000,0.000,0.000,0.000,0.000,0.000,0.000,0.000,5.200,3.000,0.000,8.2
36.72,-102.48,340908,BOCO,OK,BOISE CITY 2 E,CIMARRON,4133,1.000,-1,-1,-1,-1,-1,-1,-1,-1,-1,-1,-1,-1,-1,-1,-1,-1,-1,-1,-1,-1,-1,-1,-1,-1,-1,-1,-1,-1,-1,-1,1.0
45.30,-121.74,353402,,OR,GOVERNMENT CAMP,CLACKAMAS,3980,0.000,0.000,0.000,-1,-1,0.000,-1,-1,-1,0.000,-1,-1,0.000,-1,-1,-1,0.200,0.000,0.000,0.000,-1,0.000,-1,0.000,-1,0.000,0.000,-1,0.000,0.000,-1,0.2
42.23,-122.38,354060,HOWO,OR,HOWARD PRAIRIE DAM,JACKSON,4567,0.000,0.000,0.000,0.000,0.000,0.000,0.000,0.000,1.000,0.000,0.000,0.000,0.000,0.000,0.000,1.000,0.000,0.000,0.000,0.000,0.000,0.000,0.000,0.000,0.000,1.000,0.000,0.000,0.000,0.000,0.000,3.0
43.23,-121.79,351546,CHEO,OR,CHEMULT,KLAMATH,4760,-1,0.000,0.000,0.000,0.000,0.000,-1,0.000,0.000,0.000,0.000,0.000,0.000,0.000,-1,0.000,1.500,0.000,0.000,0.000,0.000,0.000,0.000,0.000,0.000,0.000,0.000,-1,-1,0.000,0.000,1.5
42.90,-122.13,351946,CRLO,OR,CRATER LAKE NPS HQ,KLAMATH,6475,0.000,0.000,0.000,0.000,0.000,0.000,0.200,1.500,0.500,0.000,0.000,2.000,0.000,0.000,0.000,5.500,5.000,4.000,0.000,0.000,0.000,0.000,0.000,0.000,-1,7.000,6.500,1.500,0.000,0.000,2.800,36.5
43.55,-121.96,356252,OLEO,OR,ODELL LAKE-EAST,KLAMATH,4800,0.000,-1,0.000,0.000,-1,0.000,-1,0.000,0.000,0.000,0.000,0.000,0.000,0.000,0.000,0.700,0.000,0.000,0.000,0.000,-1,0.000,0.000,0.000,0.000,-1,-1,-1,-1,0.000,0.000,0.7
42.55,-119.66,353692,,OR,HART MTN REFUGE,LAKE,5616,-1,-1,0.000,0.000,0.000,0.000,0.000,0.000,0.100,0.000,0.000,0.000,0.000,0.000,0.000,0.500,0.000,0.500,-1,-1,0.000,0.000,0.100,0.000,0.000,0.200,0.000,0.000,11.000,3.000,0.000,15.4
42.21,-120.36,354670,,OR,LAKEVIEW 2 NNW,LAKE,4778,-1,-1,-1,-1,-1,-1,-1,-1,0.300,-1,-1,-1,-1,-1,-1,0.200,0.300,-1,-1,-1,-1,-1,-1,-1,-1,-1,-1,-1,-1,-1,-1,0.8
45.51,-118.42,355394,MEAO,OR,MEACHAM #2,UMATILLA,3711,0.000,0.000,0.000,0.000,0.000,0.000,0.000,-1,-1,0.000,0.000,0.000,0.000,0.000,0.000,1.500,0.000,0.000,0.000,0.000,0.000,0.000,0.000,0.000,0.000,0.300,0.000,-1,0.000,0.000,0.000,1.8
45.35,-117.22,354329,JOSO,OR,JOSEPH,WALLOWA,4260,0.000,0.000,0.000,0.000,0.000,0.000,0.000,0.000,0.000,0.000,0.000,0.000,0.000,0.000,0.000,0.000,0.000,0.000,0.000,0.000,0.000,0.000,0.000,0.000,0.000,0.700,0.000,0.000,0.000,0.000,0.000,0.7
45.52,-117.37,355067,,OR,LOSTINE 4 NE,WALLOWA,3780,-1,-1,0.000,0.000,0.000,0.000,0.000,0.000,-1,-1,0.000,0.000,0.000,0.000,0.000,1.000,0.000,0.000,0.000,0.000,0.000,0.000,0.000,0.000,0.000,0.000,0.000,0.000,0.000,0.000,0.000,1.0
45.41,-97.91,390120,,SD,ANDOVER #2,DAY,1470,0.200,-1,-1,-1,-1,-1,-1,-1,-1,-1,-1,-1,-1,-1,-1,-1,-1,-1,-1,-1,-1,-1,-1,-1,-1,-1,-1,-1,-1,-1,-1,0.2
45.32,-97.83,391043,,SD,BRISTOL 7S,DAY,1742,0.200,-1,0.000,-1,-1,0.000,0.000,0.000,0.000,0.000,0.000,0.000,0.000,0.000,0.000,0.000,0.000,0.000,0.000,0.000,0.000,0.000,0.000,0.000,0.000,0.000,0.000,0.000,0.000,0.000,0.000,0.2
44.39,-103.70,392209,WBCS,SD,DEADWOOD 2NE,LAWRENCE,4612,-1,-1,0.000,0.000,0.000,-1,-1,-1,0.000,0.000,-1,0.000,0.000,0.900,0.000,0.000,0.000,0.000,0.000,0.000,0.000,0.000,0.000,0.000,0.000,0.000,0.000,0.000,0.000,0.000,0.000,0.9
44.35,-103.77,394834,LEAS,SD,LEAD,LAWRENCE,5350,0.000,0.000,0.000,0.000,0.000,0.000,0.000,0.000,0.000,0.000,0.000,0.000,0.000,2.000,0.000,0.000,0.000,0.000,1.000,0.000,0.000,0.000,0.000,-1,0.000,0.000,0.000,0.000,0.000,0.000,0.000,3.0
45.71,-97.45,397326,ROYS,SD,ROY LAKE,MARSHALL,1808,2.000,0.000,0.000,0.000,0.000,0.000,0.000,0.000,0.000,0.000,0.000,0.000,-1,0.000,0.000,0.000,0.000,0.000,0.000,0.000,0.000,0.000,0.000,0.000,0.000,0.000,0.000,0.000,0.000,-1,0.000,2.0
44.06,-103.48,396427,RAPS,SD,PACTOLA DAM,PENNINGTON,4720,-1,0.100,0.000,0.000,0.000,0.000,0.000,0.000,0.000,0.000,0.000,0.000,0.000,0.000,0.100,0.000,0.000,0.000,0.000,0.000,0.000,0.000,0.000,0.000,0.000,0.000,0.000,0.000,0.000,0.000,0.000,0.2
45.69,-102.27,397569,,SD,SHADEHILL RSVR,PERKINS,2450,1.000,0.000,0.000,0.000,0.000,0.000,0.000,0.000,0.000,0.000,0.000,0.000,0.000,0.000,0.000,0.000,0.000,0.000,0.000,0.000,0.000,0.000,0.000,0.000,0.000,0.000,0.000,0.000,0.000,0.000,0.000,1.0
41.75,-111.80,425186,,UT,LOGAN UTAH ST UNIV,CACHE,4790,0.000,0.000,0.000,0.000,0.000,0.000,0.000,0.000,0.000,0.000,0.000,0.000,0.000,-1,0.000,0.000,0.000,0.000,0.000,0.000,0.000,0.000,0.000,0.000,0.000,0.000,0.000,-1,0.000,0.500,0.000,0.5
37.64,-112.17,421008,BRYU,UT,BRYCE CANYON NP HQRS,GARFIELD,7915,0.000,-1,-1,-1,-1,-1,-1,-1,-1,-1,-1,-1,-1,0.000,0.000,0.000,0.000,0.500,0.200,-1,-1,-1,-1,-1,-1,-1,-1,-1,-1,-1,-1,0.7
37.71,-113.14,421259,,UT,CEDAR CITY,IRON,6090,0.000,0.000,0.000,0.000,0.000,0.000,0.000,0.000,0.000,1.000,0.000,0.000,0.000,-1,0.000,0.000,0.000,0.000,3.000,0.000,0.000,0.000,0.000,0.000,-1,0.000,0.000,0.000,0.000,0.500,0.000,4.5
37.66,-112.99,421260,,UT,CEDAR CITY 5E,IRON,6450,-1,-1,-1,-1,-1,-1,-1,-1,-1,-1,-1,-1,-1,-1,-1,-1,-1,0.300,-1,-1,-1,-1,-1,-1,-1,-1,-1,-1,-1,-1,-1,0.3
39.11,-113.95,422607,,UT,ESKDALE,MILLARD,4980,0.000,-1,0.000,-1,0.000,-1,0.000,-1,0.000,0.000,-1,-1,0.000,0.000,-1,-1,0.000,-1,-1,0.000,0.000,0.000,0.000,-1,0.000,-1,0.000,0.000,4.000,4.000,-1,8.0
41.83,-111.32,424856,LKTU,UT,LAKETOWN,RICH,5980,-1,-1,-1,0.000,-1,-1,-1,-1,0.000,-1,-1,-1,0.000,-1,0.000,0.000,0.000,0.000,0.000,-1,-1,-1,-1,-1,0.000,0.000,0.000,0.000,6.000,4.000,0.000,10.0
41.66,-111.19,427165,RANU,UT,RANDOLPH,RICH,6270,0.000,0.000,-1,0.000,0.000,0.000,-1,0.000,-1,-1,-1,-1,-1,-1,-1,-1,0.000,0.000,0.000,0.000,-1,-1,-1,0.000,0.000,-1,-1,0.000,5.200,1.500,0.000,6.7
40.59,-111.64,420072,ATAU,UT,ALTA,SALT LAKE,8730,0.000,0.000,0.000,0.000,0.000,0.000,0.000,0.000,4.000,0.000,0.000,0.000,0.000,0.000,0.000,0.000,7.000,0.000,6.000,8.000,-1,0.000,-1,3.000,0.000,0.000,0.000,0.000,4.000,10.000,0.000,42.0
40.84,-111.83,421446,,UT,CITY CREEK WTP,SALT LAKE,5330,0.000,0.000,0.000,-1,0.000,0.000,0.000,0.000,0.000,-1,-1,0.000,0.000,0.000,0.000,0.000,0.000,-1,0.000,0.000,0.000,0.000,0.000,-1,-1,0.000,0.000,0.000,0.000,1.200,0.000,1.2
40.60,-111.58,427846,PKCU,UT,SILVER LAKE BRIGHTON,SALT LAKE,8740,-1,-1,-1,-1,-1,-1,-1,-1,-1,-1,-1,-1,-1,-1,-1,-1,-1,-1,-1,-1,-1,-1,-1,-1,-1,-1,-1,-1,6.000,-1,-1,6.0
37.72,-109.08,421308,,UT,CEDAR POINT,SAN JUAN,6760,0.000,-1,0.000,0.000,0.000,0.000,0.000,0.000,0.000,1.000,0.000,0.000,0.000,0.000,0.000,0.000,0.000,0.000,0.000,-1,0.000,0.000,0.000,0.000,0.000,0.000,0.000,0.000,0.000,0.000,0.000,1.0
38.30,-109.23,424947,LASU,UT,LA SAL 1SW,SAN JUAN,6789,0.000,0.000,0.000,0.000,0.000,0.000,0.000,0.000,0.000,0.500,0.000,0.000,0.000,0.000,0.000,0.000,0.000,0.000,0.000,0.000,0.000,0.000,0.000,0.000,0.000,0.000,0.000,0.000,0.000,0.000,0.000,0.5
40.79,-111.41,429165,,UT,WANSHIP DAM,SUMMIT,5940,-1,-1,-1,-1,-1,-1,0.000,0.000,0.000,-1,-1,-1,0.000,0.000,0.000,0.000,0.500,0.000,-1,-1,-1,0.000,0.000,0.000,-1,0.000,0.000,0.000,0.500,0.500,0.000,1.5
40.53,-112.30,428771,TOEU,UT,TOOELE,TOOELE,5074,0.000,0.000,0.000,0.000,0.000,0.000,0.000,0.000,0.000,0.000,0.000,0.000,0.000,0.000,0.000,0.000,1.000,0.000,0.000,0.000,0.000,0.000,0.000,0.000,0.000,0.000,0.000,0.000,0.000,0.000,0.000,1.0
40.46,-111.77,420061,AMFU,UT,ALPINE,UTAH,5070,0.000,0.000,0.000,0.000,0.000,0.000,0.000,0.000,0.000,0.000,0.000,0.000,0.000,0.000,0.000,-1,0.000,0.000,0.000,0.000,0.000,0.000,0.000,0.000,0.000,0.000,0.000,0.000,0.000,0.400,0.000,0.4
40.49,-111.43,423809,HEBU,UT,HEBER,WASATCH,5590,0.000,0.000,0.000,0.000,0.000,0.000,0.000,0.000,0.000,0.000,0.000,0.000,0.000,0.000,0.000,0.000,0.000,0.000,2.000,0.000,0.000,0.000,0.000,0.000,0.000,0.000,0.000,0.000,0.000,0.000,0.000,2.0
44.50,-72.22,438652,,VT,WALDEN 4N,CALEDONIA,2250,0.000,0.000,0.000,0.000,0.000,0.500,0.000,0.000,0.000,0.000,0.000,0.000,0.000,0.000,0.000,0.000,0.000,0.000,0.000,0.000,0.000,0.000,0.000,0.000,0.000,0.000,0.000,0.000,0.000,0.000,0.000,0.5
44.52,-72.82,435416,MMNV,VT,MT MANSFIELD,LAMOILLE,3950,0.000,0.000,0.000,0.300,2.000,1.000,0.000,0.000,0.000,0.000,0.000,0.000,0.000,0.000,0.000,0.000,0.000,-1,0.000,0.000,0.000,0.000,-1,0.000,-1,0.000,0.000,0.000,0.000,-1,0.000,3.3
46.75,-121.81,454764,,WA,LONGMIRE RAINIER NPS,PIERCE,2762,0.000,0.000,1.000,0.000,0.000,0.000,0.000,-1,0.000,0.000,-1,0.000,0.000,0.000,0.000,0.000,0.000,0.000,0.000,0.000,-1,0.000,0.000,0.000,0.000,0.000,0.000,0.000,0.000,0.000,0.000,1.0
46.79,-121.74,456898,,WA,RAINIER PARADISE RS,PIERCE,5427,0.000,0.000,8.000,2.500,0.000,1.000,5.500,2.500,2.500,0.000,0.000,-1,-1,-1,-1,-1,-1,-1,-1,-1,-1,0.000,1.000,1.300,0.000,2.500,2.800,2.500,0.000,0.000,0.000,32.1
44.93,-89.63,478968,AUW,WI,WAUSAU FAA AP,MARATHON,1196,0.000,0.000,0.100,0.000,0.000,0.000,0.000,0.000,0.000,0.000,0.000,0.000,0.000,0.000,0.000,0.000,0.000,0.000,0.000,0.000,0.000,0.000,0.000,0.000,0.000,0.000,0.000,0.000,0.000,0.000,0.000,0.1
38.40,-79.99,468308,SNOW,WV,SNOWSHOE,POCAHONTAS,4850,0.000,-1,0.000,1.000,0.000,0.000,0.000,0.000,0.000,0.000,0.000,0.000,0.000,0.000,0.000,0.000,0.000,0.000,0.000,0.000,0.000,0.000,0.000,0.000,0.000,0.000,0.000,0.000,0.000,0.000,0.000,1.0
39.10,-79.43,462211,,WV,DAVIS 3 SE,TUCKER,3815,0.000,0.000,0.000,0.300,0.000,0.000,0.000,0.000,0.000,0.000,0.000,0.000,0.000,0.000,0.000,0.000,0.000,0.000,0.000,0.000,0.000,0.000,0.000,0.000,0.000,0.000,0.000,0.000,0.000,0.000,0.000,0.3
41.28,-105.53,485417,LRMW,WY,LARAMIE 4SE,ALBANY,7390,0.000,0.300,0.300,0.700,0.000,0.000,0.000,-1,-1,-1,-1,-1,-1,-1,-1,-1,-1,-1,-1,-1,-1,0.000,0.000,0.000,0.000,0.000,0.000,0.000,0.000,0.000,0.000,1.3
41.76,-105.38,488808,,WY,SYBILLE RSCH UNIT,ALBANY,6086,0.000,2.300,0.000,0.000,0.000,0.000,0.000,0.000,0.000,0.000,4.000,0.000,0.000,0.000,0.000,0.000,0.000,0.000,3.200,0.000,0.000,0.000,0.000,0.000,0.000,0.000,-1,-1,-1,-1,-1,9.5
43.75,-105.73,489805,,WY,WRIGHT 12W,CAMPBELL,5020,0.100,-1,-1,-1,-1,-1,-1,-1,-1,-1,-1,-1,0.000,0.000,0.000,0.000,0.000,0.000,0.000,-1,0.000,0.000,0.000,0.000,0.000,0.000,-1,-1,-1,-1,-1,0.1
41.90,-106.20,486120,,WY,MEDICINE BOW,CARBON,6605,0.000,0.000,0.000,0.000,0.000,0.000,0.000,0.000,0.000,0.000,0.000,2.000,0.000,0.000,0.000,0.000,0.000,0.000,0.000,2.000,0.000,0.000,0.000,0.000,0.000,0.000,0.000,0.000,0.000,0.000,0.000,4.0
42.37,-106.10,488192,SHRW,WY,SHIRLEY BASIN,CARBON,7055,1.200,0.000,0.000,0.000,3.400,0.000,0.000,0.000,0.000,0.000,0.200,9.500,0.000,0.000,0.000,0.000,0.000,0.000,0.400,3.800,0.300,0.500,0.000,0.000,0.000,0.000,0.000,0.000,0.000,0.000,-1,19.3
42.75,-105.36,482685,,WY,DOUGLAS 1 SE,CONVERSE,4870,0.000,0.000,0.000,0.000,0.000,0.000,0.000,0.000,0.000,0.000,0.000,0.000,0.000,0.000,0.000,0.000,0.000,0.000,0.000,3.000,0.000,0.000,0.000,0.000,0.000,0.000,0.000,0.000,0.000,0.000,0.000,3.0
44.41,-104.36,488705,,WY,SUNDANCE,CROOK,4650,1.100,0.000,0.000,0.000,0.000,0.000,0.000,0.000,0.000,0.000,0.000,0.000,-1,0.000,0.000,0.000,0.000,0.000,0.000,-1,0.000,0.000,0.000,0.000,0.000,0.000,-1,-1,-1,0.000,0.000,1.1
43.54,-109.66,482715,DBOW,WY,DUBOIS,FREMONT,6955,0.000,0.000,0.000,0.000,0.000,0.000,0.000,0.000,0.000,0.000,1.000,0.000,0.000,0.000,0.000,0.000,0.000,0.000,0.000,0.000,-1,-1,-1,-1,0.000,0.000,0.000,0.000,3.000,2.500,1.000,7.5
42.49,-107.83,484925,JEFW,WY,JEFFREY CITY,FREMONT,6320,0.000,-1,-1,0.000,0.000,-1,-1,-1,-1,-1,-1,0.000,-1,0.000,-1,0.000,-1,0.000,-1,0.000,-1,-1,-1,-1,0.000,-1,-1,-1,1.000,-1,-1,1.0
42.82,-108.73,485390,LND,WY,LANDER AP,FREMONT,5557,0.000,0.000,0.000,0.000,0.000,0.000,0.000,0.000,0.000,0.000,0.000,0.000,0.000,0.000,0.000,0.000,0.000,0.000,6.000,0.000,0.000,0.000,0.000,0.000,0.000,0.000,0.000,0.000,5.400,1.100,0.000,12.5
43.03,-108.37,487760,RIVW,WY,RIVERTON,FREMONT,4955,0.000,0.000,0.000,0.000,0.000,0.000,0.000,0.000,0.000,0.000,0.000,0.000,0.000,0.000,0.000,0.000,0.000,0.000,0.000,0.100,0.000,0.000,0.000,0.000,0.000,0.000,0.000,0.000,0.200,4.800,0.500,5.6
43.75,-108.14,488884,,WY,THERMOPOLIS 9NE,HOT SPRINGS,4281,0.000,0.000,0.000,0.000,0.000,0.000,-1,-1,-1,-1,-1,-1,-1,-1,-1,0.000,0.000,0.000,0.000,0.000,0.000,-1,-1,-1,-1,0.000,0.000,0.000,0.000,0.000,0.800,0.8
44.12,-106.73,480740,,WY,BILLY CREEK,JOHNSON,4975,0.000,0.000,0.000,0.000,0.000,0.000,0.000,0.000,0.000,0.000,0.000,0.000,0.000,0.000,0.000,0.000,0.000,0.000,0.000,0.000,0.000,0.000,0.000,0.000,0.000,0.000,0.000,0.000,0.300,0.000,0.000,0.3
41.15,-104.81,481676,,WY,CHEYENNE WFO,LARAMIE,6140,0.000,0.300,0.100,0.000,0.000,0.000,0.000,0.000,0.000,0.000,0.400,1.500,0.000,0.000,0.000,0.000,0.000,0.000,0.300,0.000,0.000,0.000,0.000,0.000,0.000,0.000,0.000,0.000,0.000,0.000,0.000,2.6
41.15,-104.82,481675,CYS,WY,CHEYENNE WSFO AP,LARAMIE,6130,0.200,0.300,0.000,0.000,0.000,0.000,0.000,0.000,0.000,0.000,0.400,1.500,0.000,0.000,0.000,0.000,0.000,0.000,1.300,0.000,0.000,0.000,0.000,0.000,0.000,0.000,0.000,0.000,0.000,0.000,0.000,3.7
41.99,-110.06,483396,,WY,FONTENELLE DAM,LINCOLN,6480,-1,0.000,0.000,-1,-1,-1,0.000,0.000,-1,-1,-1,-1,0.000,0.000,0.000,0.000,0.000,0.000,-1,0.000,0.000,0.000,0.000,0.000,0.000,-1,-1,-1,4.000,0.000,0.000,4.0
41.84,-110.77,483582,FBMW,WY,FOSSIL BUTTE,LINCOLN,6780,0.000,0.000,0.000,0.000,0.000,0.000,0.000,0.000,0.300,0.100,0.000,0.000,0.000,0.000,0.000,0.000,0.000,0.200,0.000,2.000,0.000,0.000,0.000,0.000,0.000,0.000,0.000,0.000,4.500,1.000,0.000,8.1
42.26,-110.20,485252,,WY,LA BARGE,LINCOLN,6595,0.000,0.000,-1,0.000,0.000,0.000,0.000,0.000,0.000,0.000,0.000,0.000,0.000,0.000,0.000,0.000,0.000,0.000,0.000,3.000,0.000,0.000,0.000,0.000,0.000,0.000,0.000,-1,6.000,0.000,0.000,9.0
42.90,-106.46,481570,CPR,WY,CASPER WSCMO,NATRONA,5338,0.000,0.000,0.000,0.000,0.000,0.000,0.000,0.000,0.000,0.000,0.000,0.000,0.000,0.000,0.000,0.000,0.000,0.000,0.700,0.000,0.000,0.000,0.000,0.000,0.000,0.000,0.000,0.000,0.000,0.000,0.000,0.7
43.04,-106.99,487375,,WY,POWDER RIVER (SCHOOL),NATRONA,5694,0.000,0.000,0.000,0.000,0.000,0.000,0.000,0.000,0.000,0.000,0.000,0.000,-1,0.000,0.000,0.000,0.000,0.000,1.000,0.000,0.000,0.000,0.000,0.000,0.000,0.000,0.000,0.000,0.000,0.000,0.000,1.0
44.50,-109.96,487031,,WY,PAHASKA,PARK,6697,0.000,0.000,0.000,0.000,0.000,0.000,0.000,0.000,1.000,1.000,0.000,0.000,0.000,0.000,0.000,0.000,0.000,0.000,0.000,0.000,0.000,0.000,0.000,0.000,0.000,0.000,1.000,5.000,0.000,0.000,0.000,8.0
44.08,-108.95,488758,SUNW,WY,SUNSHINE 3NE,PARK,6238,0.000,-1,0.000,0.000,0.000,0.000,0.000,0.000,0.000,3.800,0.200,0.000,0.000,0.000,0.000,0.000,0.000,0.000,0.000,1.300,0.000,0.000,0.000,0.000,0.000,0.000,0.000,0.000,1.100,0.500,0.000,6.9
44.49,-110.00,489902,EYPW,WY,YELLOWSTONE NP E ENT,PARK,6952,0.000,0.000,0.000,-1,0.000,0.000,0.000,0.500,-1,1.000,0.000,0.000,0.000,0.000,0.000,0.000,0.000,0.000,0.000,0.000,0.000,0.000,0.000,0.000,0.000,-1,0.500,6.000,0.000,0.000,0.000,8.0
41.76,-104.82,481730,CHGW,WY,CHUGWATER,PLATTE,5304,0.000,0.000,0.000,0.000,0.000,0.000,0.000,0.000,0.000,0.000,0.000,0.200,-1,0.000,0.000,0.000,0.000,-1,-1,-1,-1,0.000,0.000,0.000,-1,0.000,0.000,0.000,-1,0.000,0.000,0.2
42.53,-104.92,483936,,WY,GLENDO 6NE,PLATTE,4739,0.000,0.000,0.000,0.000,0.000,0.000,0.000,0.000,0.000,0.000,0.000,0.000,-1,0.000,0.000,0.000,0.000,0.000,0.000,3.500,0.000,0.000,0.000,0.000,0.000,0.000,0.000,0.000,0.000,0.000,0.000,3.5
42.11,-104.95,489615,WLDW,WY,WHEATLAND 4 N,PLATTE,4638,-1,-1,-1,-1,-1,-1,0.000,0.000,0.000,-1,-1,-1,-1,-1,-1,-1,-1,-1,2.000,-1,-1,-1,-1,-1,-1,-1,-1,-1,-1,-1,-1,2.0
44.77,-107.52,481220,BURW,WY,BURGESS JUNCTION,SHERIDAN,8060,3.500,1.500,0.000,0.000,0.000,0.000,0.000,0.000,0.000,2.000,2.000,0.000,-1,-1,-1,-1,0.000,1.000,3.500,10.000,-1,-1,-1,-1,0.000,0.000,0.000,0.000,1.000,8.000,1.000,33.5
44.58,-106.90,488626,STOW,WY,STORY,SHERIDAN,5083,0.600,0.000,0.000,0.000,0.000,0.000,0.000,0.000,0.000,0.000,0.000,0.000,0.000,0.000,0.000,0.000,0.000,0.000,0.000,0.000,0.000,0.000,0.000,0.000,0.000,0.000,0.000,0.000,0.000,0.000,0.000,0.6
42.93,-110.13,482242,,WY,DANIEL FISH HATCHERY,SUBLETTE,7335,0.000,0.000,0.000,0.000,0.000,0.000,0.000,0.000,0.000,0.100,0.000,0.000,0.000,0.000,0.000,-1,0.000,0.000,0.000,0.000,0.000,0.000,0.000,0.000,0.000,0.000,0.000,0.000,1.000,0.000,0.000,1.1
41.53,-109.48,484065,,WY,GREEN RIVER,SWEETWATER,6077,0.000,0.000,0.000,0.000,0.000,0.000,0.000,0.000,0.000,0.000,0.000,0.000,0.000,0.000,0.000,0.000,0.000,0.000,0.000,0.000,0.000,0.000,0.000,0.000,0.000,0.000,0.000,0.000,0.000,1.000,0.000,1.0
43.42,-110.15,482375,,WY,DARWIN RCH,TETON,8160,-1,-1,-1,-1,-1,-1,-1,-1,-1,-1,-1,-1,-1,-1,-1,-1,0.000,0.000,0.000,-1,-1,-1,-1,-1,-1,-1,-1,0.000,0.000,2.000,-1,2.0
43.66,-110.72,486428,MOOW,WY,MOOSE,TETON,6470,0.000,0.000,0.000,0.000,0.000,0.000,0.000,0.000,0.000,2.000,0.000,0.000,0.000,0.000,0.000,0.000,-1,-1,0.000,0.000,-1,0.000,-1,0.000,0.000,0.000,0.000,0.000,-1,0.000,-1,2.0
44.46,-110.83,486845,OLFW,WY,OLD FAITHFUL,TETON,7360,-1,-1,-1,-1,-1,-1,-1,-1,0.000,-1,-1,0.000,0.000,-1,-1,-1,0.000,0.000,0.000,0.000,-1,-1,0.000,0.000,0.000,0.000,-1,4.000,0.500,2.000,0.000,6.5
44.13,-110.67,488315,SNKW,WY,SNAKE RIVER,TETON,6882,-1,0.000,0.000,-1,-1,-1,-1,-1,-1,-1,0.000,-1,0.000,0.000,0.000,-1,0.000,0.000,0.000,-1,0.000,0.000,0.000,-1,0.100,0.000,0.000,-1,0.200,1.000,-1,1.3
41.27,-110.33,486555,,WY,MTN VIEW,UINTA,6800,-1,-1,-1,-1,-1,-1,0.000,0.000,1.000,-1,-1,-1,-1,-1,-1,-1,-1,-1,-1,-1,-1,-1,-1,-1,-1,-1,-1,5.000,5.000,1.000,0.000,12.0
43.81,-107.36,488858,,WY,TENSLEEP 16SSE,WASHAKIE,4680,0.000,0.000,0.000,0.000,0.000,0.000,0.000,0.000,0.000,1.000,0.500,0.000,0.000,0.000,0.000,0.000,0.000,0.000,0.000,0.000,0.000,0.000,0.000,0.000,0.000,0.000,0.000,0.000,0.000,0.000,0.000,1.5
44.16,-104.35,489208,,WY,UPTON 14ENE,WESTON,5230,1.000,0.500,0.000,0.000,0.000,0.000,0.000,0.000,0.000,0.000,0.000,0.000,0.000,0.000,0.000,0.000,0.000,-1,-1,-1,-1,-1,-1,-1,-1,-1,-1,-1,-1,-1,0.000,1.5
64.74,-156.88,503212,,AK,GALENA,,152,0.000,0.000,0.000,0.000,0.000,0.000,0.000,0.000,0.000,0.000,1.000,0.000,0.000,0.000,0.000,0.000,0.000,0.000,0.000,0.000,0.000,0.000,0.000,0.000,0.000,0.000,0.000,0.000,0.000,0.000,0.000,1.0
62.62,-141.01,507513,,AK,PORT ALCAN,,1932,0.000,0.000,0.000,0.000,1.000,0.000,0.000,0.000,0.000,0.000,0.000,0.000,3.000,0.000,0.000,0.000,0.000,0.000,0.000,0.000,0.000,0.000,0.000,0.000,0.000,0.000,0.000,0.000,0.000,0.000,0.000,4.0
64.87,-155.12,508047,,AK,RUBY 14NE,,259,0.000,-1,0.000,0.000,0.000,0.000,0.000,0.000,0.000,0.000,0.100,0.000,0.000,0.000,0.000,0.000,0.000,0.000,0.000,0.000,0.000,0.000,0.000,0.000,-1,0.000,0.000,0.000,0.000,-1,-1,0.1
57.16,-170.22,508118,,AK,ST PAUL ISLAND AP,ALEUTIANS WEST,35,0.200,0.000,0.000,0.000,0.000,0.200,0.500,0.100,0.000,0.000,0.000,0.000,0.000,0.100,0.000,0.000,0.000,0.000,0.000,0.000,0.000,0.000,0.000,0.000,0.000,0.000,0.000,0.000,0.000,0.000,0.000,1.1
60.78,-161.83,500754,,AK,BETHEL AP,BETHEL,102,0.300,0.000,0.000,0.000,0.000,0.000,0.000,0.000,0.000,0.000,-1,0.000,0.000,0.000,0.000,0.000,0.000,0.000,0.000,0.000,0.000,0.000,0.000,0.000,0.000,0.000,0.000,0.000,0.000,0.000,0.000,0.3
63.87,-149.02,503585,,AK,HEALY 2 NW,DENALI,1470,0.000,0.400,0.900,0.000,0.000,0.000,0.800,0.000,0.000,0.000,0.100,0.000,0.000,0.000,0.000,0.000,0.000,0.000,0.000,0.000,0.000,0.000,0.000,0.000,0.000,0.000,0.000,0.000,0.000,0.000,-1,2.2
64.92,-148.27,504621,,AK,KEYSTONE RIDGE,FAIRBANKS NORTH STAR,1600,0.000,0.100,-1,-1,-1,-1,-1,-1,-1,-1,-1,-1,-1,-1,-1,0.000,0.000,0.000,0.000,-1,0.000,0.000,0.000,0.000,0.000,0.000,0.000,0.000,0.000,0.000,0.000,0.1
62.83,-149.90,501926,,AK,CHULITNA RIVER,MATANUSKA-SUSITNA,1419,0.000,0.000,0.000,1.000,0.000,0.000,0.000,0.000,0.000,-1,0.000,0.000,0.000,0.000,0.000,0.000,0.000,0.000,0.000,-1,0.000,0.000,0.000,-1,0.000,0.000,0.000,0.000,0.000,0.000,0.000,1.0
71.28,-156.78,500546,,AK,BARROW WSO AP,NORTH SLOPE,31,0.000,-1,0.500,0.000,0.000,0.000,-1,0.100,-1,0.400,0.300,0.000,0.000,0.000,-1,0.100,-1,0.000,0.000,0.000,0.000,0.000,0.000,0.000,0.000,0.000,0.000,0.000,0.000,0.000,0.000,1.4
70.43,-150.41,502126,,AK,COLVILLE VILLAGE,NORTH SLOPE,5,0.000,0.000,0.500,0.000,0.000,0.000,0.000,0.400,0.400,0.000,0.000,0.000,0.000,0.000,0.000,0.000,0.200,0.000,0.000,0.000,0.000,0.000,0.000,0.000,0.000,0.000,0.000,0.000,0.000,0.000,0.000,1.5
64.08,-145.61,502350,,AK,DELTA 5 NE,SOUTHEAST FAIRBANKS,1060,0.000,0.000,0.000,0.000,0.000,0.000,0.900,0.000,0.000,0.000,0.000,0.000,0.300,0.000,0.000,0.000,0.000,0.000,0.000,0.000,0.000,0.000,0.000,0.000,0.000,0.000,0.000,0.000,0.000,0.000,0.000,1.2
64.12,-145.75,502339,,AK,DELTA 6N,SOUTHEAST FAIRBANKS,1059,0.000,0.000,0.000,0.000,0.000,0.000,0.700,0.000,0.000,-1,-1,-1,0.200,0.000,0.000,0.000,0.000,0.000,-1,0.000,0.000,0.000,0.000,0.000,0.000,-1,0.000,0.000,0.000,0.000,-1,0.9
63.96,-145.10,502352,,AK,DELTA JUNCTION 20SE,SOUTHEAST FAIRBANKS,1125,0.000,0.000,0.000,0.000,0.000,0.000,1.500,0.000,0.000,-1,0.000,0.000,0.000,0.000,0.000,0.000,0.000,0.000,0.000,0.000,0.000,0.000,0.000,-1,-1,-1,0.000,0.000,0.000,0.000,0.000,1.5
63.68,-144.60,502568,,AK,DRY CREEK,SOUTHEAST FAIRBANKS,1350,0.000,0.000,0.000,0.000,0.000,0.000,0.500,0.000,0.000,0.000,0.000,0.000,-1,0.000,0.000,0.000,0.000,0.000,0.000,0.000,0.000,0.000,0.000,0.000,0.000,0.000,0.000,0.000,0.000,0.000,0.000,0.5
61.42,-143.00,505757,,AK,MCCARTHY 3 SW,VALDEZ-CORDOVA,1250,0.000,0.000,0.000,0.000,0.000,0.000,0.200,0.000,0.000,0.000,0.000,0.000,0.000,0.000,0.000,0.000,0.000,0.000,0.000,0.000,0.000,0.000,0.000,0.000,0.000,0.000,0.000,0.000,-1,0.000,0.000,0.2
66.92,-151.51,500761,,AK,BETTLES AP,YUKON-KOYUKUK,642,-1,0.000,-1,-1,-1,1.000,-1,0.000,0.000,-1,-1,-1,-1,-1,-1,0.000,-1,0.000,-1,-1,0.000,0.000,-1,0.000,-1,0.000,-1,-1,-1,0.000,-1,1.0
65.57,-144.77,501466,,AK,CENTRAL #2,YUKON-KOYUKUK,920,-1,-1,-1,-1,0.000,-1,0.000,0.000,-1,0.000,5.500,0.000,0.600,0.000,0.000,-1,0.000,0.000,-1,-1,-1,-1,-1,-1,0.000,0.000,-1,-1,0.000,0.000,0.000,6.1
64.09,-141.92,501684,,AK,CHICKEN,YUKON-KOYUKUK,1800,0.000,0.000,0.000,0.000,0.000,0.000,1.000,0.000,0.000,0.000,0.000,0.000,-1,0.000,0.000,0.000,0.000,0.000,0.000,0.000,0.000,0.000,0.000,0.000,-1,-1,-1,-1,-1,-1,-1,1.0
65.49,-144.64,501987,,AK,CIRCLE HOT SPRINGS,YUKON-KOYUKUK,860,-1,0.000,0.000,0.000,0.000,0.000,-1,-1,0.000,0.000,7.100,7.200,-1,-1,-1,0.000,-1,0.000,-1,-1,0.000,0.000,0.000,0.000,0.000,0.000,0.000,-1,0.000,0.000,0.000,14.3
67.42,-150.11,509869,,AK,WISEMAN,YUKON-KOYUKUK,1147,0.000,0.000,0.000,0.000,0.000,0.000,1.000,0.000,0.000,0.000,0.000,0.000,0.000,0.000,0.000,0.000,0.000,0.000,0.000,0.000,0.000,0.000,0.000,0.000,0.000,0.000,0.000,0.000,0.000,0.000,0.000,1.0
